{"generado": "2026-07-01T11:58:11+00:00", "nacional": true, "estaciones": [{"bna": "1000005", "nombre": "Visviri", "tipo": "pluviometrica", "var": "pr", "archivo": "1000005_pr.json", "lat": -17.595, "lon": -69.4831, "altitud_m": 4080.0, "cuenca": "Altiplanicas", "periodo": "1968-2018", "n_anios": 51, "nacional": true}, {"bna": "1200002", "nombre": "Villa Industrial (Tacora)", "tipo": "pluviometrica", "var": "pr", "archivo": "1200002_pr.json", "lat": -17.7719, "lon": -69.7244, "altitud_m": 4080.0, "cuenca": "Rio Lluta", "periodo": "1975-2017", "n_anios": 43, "nacional": true}, {"bna": "1200003", "nombre": "Humapalca", "tipo": "pluviometrica", "var": "pr", "archivo": "1200003_pr.json", "lat": -17.835, "lon": -69.7039, "altitud_m": 3980.0, "cuenca": "Rio Lluta", "periodo": "1971-2017", "n_anios": 47, "nacional": true}, {"bna": "1201005", "nombre": "Rio Caracarani En Humapalca", "tipo": "pluviometrica", "var": "pr", "archivo": "1201005_pr.json", "lat": -17.8428, "lon": -69.6994, "altitud_m": 3908.0, "cuenca": "Rio Lluta", "periodo": "2013-2018", "n_anios": 6, "nacional": true}, {"bna": "1201010", "nombre": "Alcerreca", "tipo": "pluviometrica", "var": "pr", "archivo": "1201010_pr.json", "lat": -17.9931, "lon": -69.6594, "altitud_m": 3990.0, "cuenca": "Rio Lluta", "periodo": "1971-2017", "n_anios": 47, "nacional": true}, {"bna": "1201003", "nombre": "Rio Lluta En Alcerreca", "tipo": "pluviometrica", "var": "pr", "archivo": "1201003_pr.json", "lat": -18.0036, "lon": -69.6331, "altitud_m": 3550.0, "cuenca": "Rio Lluta", "periodo": "2001-2018", "n_anios": 18, "nacional": true}, {"bna": "1001005", "nombre": "Caquena", "tipo": "pluviometrica", "var": "pr", "archivo": "1001005_pr.json", "lat": -18.0542, "lon": -69.2017, "altitud_m": 4400.0, "cuenca": "Altiplanicas", "periodo": "1970-2017", "n_anios": 48, "nacional": true}, {"bna": "1110001", "nombre": "Puquios", "tipo": "pluviometrica", "var": "pr", "archivo": "1110001_pr.json", "lat": -18.1747, "lon": -69.7439, "altitud_m": 3750.0, "cuenca": "Quebrada De La Concordia", "periodo": "1975-1981", "n_anios": 7, "nacional": true}, {"bna": "1202009", "nombre": "Pacollo", "tipo": "pluviometrica", "var": "pr", "archivo": "1202009_pr.json", "lat": -18.1769, "lon": -69.5092, "altitud_m": 4185.0, "cuenca": "Rio Lluta", "periodo": "1978-1999", "n_anios": 22, "nacional": true}, {"bna": "1020014", "nombre": "Cotacotani", "tipo": "pluviometrica", "var": "pr", "archivo": "1020014_pr.json", "lat": -18.1836, "lon": -69.2328, "altitud_m": 4550.0, "cuenca": "Altiplanicas", "periodo": "1961-2017", "n_anios": 57, "nacional": true}, {"bna": "1020013", "nombre": "Isla Blanca", "tipo": "pluviometrica", "var": "pr", "archivo": "1020013_pr.json", "lat": -18.1858, "lon": -69.2142, "altitud_m": 4540.0, "cuenca": "Altiplanicas", "periodo": "1970-1989", "n_anios": 20, "nacional": true}, {"bna": "1020002", "nombre": "Rio Desaguadero Cotacotani", "tipo": "pluviometrica", "var": "pr", "archivo": "1020002_pr.json", "lat": -18.1936, "lon": -69.2458, "altitud_m": 4500.0, "cuenca": "Altiplanicas", "periodo": "2015-2017", "n_anios": 3, "nacional": true}, {"bna": "1202012", "nombre": "Putre (Dcp)", "tipo": "pluviometrica", "var": "pr", "archivo": "1202012_pr.json", "lat": -18.195, "lon": -69.5589, "altitud_m": 3560.0, "cuenca": "Rio Lluta", "periodo": "2001-2018", "n_anios": 18, "nacional": true}, {"bna": "1202010", "nombre": "Putre", "tipo": "pluviometrica", "var": "pr", "archivo": "1202010_pr.json", "lat": -18.1992, "lon": -69.5603, "altitud_m": 3545.0, "cuenca": "Rio Lluta", "periodo": "1968-2009", "n_anios": 42, "nacional": true}, {"bna": "1020015", "nombre": "Parinacota Conaf Dga", "tipo": "pluviometrica", "var": "pr", "archivo": "1020015_pr.json", "lat": -18.2014, "lon": -69.2683, "altitud_m": 4420.0, "cuenca": "Altiplanicas", "periodo": "1932-1989", "n_anios": 58, "nacional": true}, {"bna": "1020017", "nombre": "Parinacota Ex Endesa", "tipo": "pluviometrica", "var": "pr", "archivo": "1020017_pr.json", "lat": -18.2042, "lon": -69.2683, "altitud_m": 4420.0, "cuenca": "Altiplanicas", "periodo": "1983-2018", "n_anios": 36, "nacional": true}, {"bna": "1202011", "nombre": "Las Cuevas Conaf", "tipo": "pluviometrica", "var": "pr", "archivo": "1202011_pr.json", "lat": -18.2106, "lon": -69.5103, "altitud_m": 4060.0, "cuenca": "Rio Lluta", "periodo": "1986-1988", "n_anios": 3, "nacional": true}, {"bna": "1020016", "nombre": "Chucuyo Reten", "tipo": "pluviometrica", "var": "pr", "archivo": "1020016_pr.json", "lat": -18.2164, "lon": -69.2956, "altitud_m": 4400.0, "cuenca": "Altiplanicas", "periodo": "1960-2017", "n_anios": 58, "nacional": true}, {"bna": "1020018", "nombre": "Chucuyo (Ex. Endesa)", "tipo": "pluviometrica", "var": "pr", "archivo": "1020018_pr.json", "lat": -18.2181, "lon": -69.3214, "altitud_m": 4400.0, "cuenca": "Altiplanicas", "periodo": "1984-1990", "n_anios": 7, "nacional": true}, {"bna": "1010010", "nombre": "Chungara Ajata", "tipo": "pluviometrica", "var": "pr", "archivo": "1010010_pr.json", "lat": -18.2353, "lon": -69.1833, "altitud_m": 4585.0, "cuenca": "Altiplanicas", "periodo": "1983-2018", "n_anios": 36, "nacional": true}, {"bna": "1010009", "nombre": "Chungara Guarderia", "tipo": "pluviometrica", "var": "pr", "archivo": "1010009_pr.json", "lat": -18.2669, "lon": -69.1167, "altitud_m": 4600.0, "cuenca": "Altiplanicas", "periodo": "1984-1987", "n_anios": 4, "nacional": true}, {"bna": "1010007", "nombre": "Chungara Reten", "tipo": "pluviometrica", "var": "pr", "archivo": "1010007_pr.json", "lat": -18.2808, "lon": -69.1383, "altitud_m": 4570.0, "cuenca": "Altiplanicas", "periodo": "1962-2017", "n_anios": 56, "nacional": true}, {"bna": "1300005", "nombre": "Portezuelo Chapiquia", "tipo": "pluviometrica", "var": "pr", "archivo": "1300005_pr.json", "lat": -18.3272, "lon": -69.4661, "altitud_m": 4375.0, "cuenca": "Rio San Jose", "periodo": "1976-1979", "n_anios": 4, "nacional": true}, {"bna": "1010008", "nombre": "Missituni", "tipo": "pluviometrica", "var": "pr", "archivo": "1010008_pr.json", "lat": -18.3478, "lon": -69.1342, "altitud_m": 4720.0, "cuenca": "Altiplanicas", "periodo": "1967-1974", "n_anios": 8, "nacional": true}, {"bna": "1300004", "nombre": "Murmuntane", "tipo": "pluviometrica", "var": "pr", "archivo": "1300004_pr.json", "lat": -18.3519, "lon": -69.5519, "altitud_m": 3550.0, "cuenca": "Rio San Jose", "periodo": "1970-1987", "n_anios": 18, "nacional": true}, {"bna": "1300006", "nombre": "Central Chapiquia", "tipo": "pluviometrica", "var": "pr", "archivo": "1300006_pr.json", "lat": -18.3722, "lon": -69.5481, "altitud_m": 3350.0, "cuenca": "Rio San Jose", "periodo": "1963-2018", "n_anios": 56, "nacional": true}, {"bna": "1211006", "nombre": "Lluta", "tipo": "pluviometrica", "var": "pr", "archivo": "1211006_pr.json", "lat": -18.4103, "lon": -70.1692, "altitud_m": 290.0, "cuenca": "Rio Lluta", "periodo": "1966-1993", "n_anios": 28, "nacional": true}, {"bna": "1300007", "nombre": "Belen", "tipo": "pluviometrica", "var": "pr", "archivo": "1300007_pr.json", "lat": -18.4669, "lon": -69.5167, "altitud_m": 3240.0, "cuenca": "Rio San Jose", "periodo": "1938-2018", "n_anios": 81, "nacional": true}, {"bna": "1310018", "nombre": "Arica Oficina", "tipo": "pluviometrica", "var": "pr", "archivo": "1310018_pr.json", "lat": -18.4775, "lon": -70.3208, "altitud_m": 20.0, "cuenca": "Rio San Jose", "periodo": "1974-2017", "n_anios": 44, "nacional": true}, {"bna": "1310021", "nombre": "U. Del Norte", "tipo": "pluviometrica", "var": "pr", "archivo": "1310021_pr.json", "lat": -18.4833, "lon": -70.2936, "altitud_m": 55.0, "cuenca": "Rio San Jose", "periodo": "1980-1984", "n_anios": 5, "nacional": true}, {"bna": "1021002", "nombre": "Rio Guallatire En Guallatire", "tipo": "pluviometrica", "var": "pr", "archivo": "1021002_pr.json", "lat": -18.4931, "lon": -69.1494, "altitud_m": 4280.0, "cuenca": "Altiplanicas", "periodo": "2015-2018", "n_anios": 4, "nacional": true}, {"bna": "1021007", "nombre": "Guallatire", "tipo": "pluviometrica", "var": "pr", "archivo": "1021007_pr.json", "lat": -18.4983, "lon": -69.1547, "altitud_m": 4240.0, "cuenca": "Altiplanicas", "periodo": "1969-2017", "n_anios": 49, "nacional": true}, {"bna": "1310022", "nombre": "El Buitre Aerodromo", "tipo": "pluviometrica", "var": "pr", "archivo": "1310022_pr.json", "lat": -18.5119, "lon": -70.2842, "altitud_m": 110.0, "cuenca": "Rio San Jose", "periodo": "1985-2012", "n_anios": 28, "nacional": true}, {"bna": "1300009", "nombre": "Rio Ticnamar En Angostura", "tipo": "pluviometrica", "var": "pr", "archivo": "1300009_pr.json", "lat": -18.5133, "lon": -69.5656, "altitud_m": 3010.0, "cuenca": "Rio San Jose", "periodo": "2006-2018", "n_anios": 13, "nacional": true}, {"bna": "1310019", "nombre": "Azapa", "tipo": "pluviometrica", "var": "pr", "archivo": "1310019_pr.json", "lat": -18.5156, "lon": -70.1806, "altitud_m": 365.0, "cuenca": "Rio San Jose", "periodo": "1966-2017", "n_anios": 52, "nacional": true}, {"bna": "1300008", "nombre": "Tignamar", "tipo": "pluviometrica", "var": "pr", "archivo": "1300008_pr.json", "lat": -18.5811, "lon": -69.4939, "altitud_m": 3230.0, "cuenca": "Rio San Jose", "periodo": "1968-2017", "n_anios": 50, "nacional": true}, {"bna": "1030003", "nombre": "Chilcaya", "tipo": "pluviometrica", "var": "pr", "archivo": "1030003_pr.json", "lat": -18.7939, "lon": -69.0844, "altitud_m": 4270.0, "cuenca": "Altiplanicas", "periodo": "1971-2017", "n_anios": 47, "nacional": true}, {"bna": "1410011", "nombre": "Chaca", "tipo": "pluviometrica", "var": "pr", "archivo": "1410011_pr.json", "lat": -18.8169, "lon": -70.15, "altitud_m": 350.0, "cuenca": "Costeras R. San Jose-Q.Camarones", "periodo": "1968-1983", "n_anios": 16, "nacional": true}, {"bna": "1410012", "nombre": "Codpa", "tipo": "pluviometrica", "var": "pr", "archivo": "1410012_pr.json", "lat": -18.8322, "lon": -69.7439, "altitud_m": 1870.0, "cuenca": "Costeras R. San Jose-Q.Camarones", "periodo": "1961-2017", "n_anios": 57, "nacional": true}, {"bna": "1502007", "nombre": "Esquia", "tipo": "pluviometrica", "var": "pr", "archivo": "1502007_pr.json", "lat": -18.9417, "lon": -69.5328, "altitud_m": 2170.0, "cuenca": "Q. Rio Camarones", "periodo": "1975-2017", "n_anios": 43, "nacional": true}, {"bna": "1502008", "nombre": "Rio Camarones En Chilpe", "tipo": "pluviometrica", "var": "pr", "archivo": "1502008_pr.json", "lat": -18.9431, "lon": -69.6197, "altitud_m": 1565.0, "cuenca": "Q. Rio Camarones", "periodo": "2005-2018", "n_anios": 14, "nacional": true}, {"bna": "1501001", "nombre": "Caritaya Embalse", "tipo": "pluviometrica", "var": "pr", "archivo": "1501001_pr.json", "lat": -19.0247, "lon": -69.3361, "altitud_m": 3600.0, "cuenca": "Q. Rio Camarones", "periodo": "1932-1965", "n_anios": 34, "nacional": true}, {"bna": "1610003", "nombre": "Pumire", "tipo": "pluviometrica", "var": "pr", "archivo": "1610003_pr.json", "lat": -19.0953, "lon": -69.1108, "altitud_m": 4150.0, "cuenca": "Costeras R.Camarones-Pampa Del Tamarugal", "periodo": "1962-1991", "n_anios": 30, "nacional": true}, {"bna": "1502006", "nombre": "Cuya", "tipo": "pluviometrica", "var": "pr", "archivo": "1502006_pr.json", "lat": -19.1117, "lon": -70.1269, "altitud_m": 200.0, "cuenca": "Q. Rio Camarones", "periodo": "1965-1979", "n_anios": 15, "nacional": true}, {"bna": "1610004", "nombre": "Q. Camia 3 Km. A. Arriba De Tarcavire", "tipo": "pluviometrica", "var": "pr", "archivo": "1610004_pr.json", "lat": -19.1181, "lon": -69.2447, "altitud_m": 3848.0, "cuenca": "Costeras R.Camarones-Pampa Del Tamarugal", "periodo": "2006-2018", "n_anios": 13, "nacional": true}, {"bna": "1041004", "nombre": "Enquelca (Ex Caraguano)", "tipo": "pluviometrica", "var": "pr", "archivo": "1041004_pr.json", "lat": -19.2289, "lon": -68.8044, "altitud_m": 3900.0, "cuenca": "Altiplanicas", "periodo": "1985-2017", "n_anios": 33, "nacional": true}, {"bna": "1041003", "nombre": "Colchane (T. Isluga)", "tipo": "pluviometrica", "var": "pr", "archivo": "1041003_pr.json", "lat": -19.2764, "lon": -68.6378, "altitud_m": 3700.0, "cuenca": "Altiplanicas", "periodo": "1975-2018", "n_anios": 44, "nacional": true}, {"bna": "1611002", "nombre": "Apamilca (Camia)", "tipo": "pluviometrica", "var": "pr", "archivo": "1611002_pr.json", "lat": -19.2967, "lon": -69.3867, "altitud_m": 2600.0, "cuenca": "Costeras R.Camarones-Pampa Del Tamarugal", "periodo": "1986-1990", "n_anios": 5, "nacional": true}, {"bna": "1611001", "nombre": "Camia", "tipo": "pluviometrica", "var": "pr", "archivo": "1611001_pr.json", "lat": -19.3136, "lon": -69.4172, "altitud_m": 2500.0, "cuenca": "Costeras R.Camarones-Pampa Del Tamarugal", "periodo": "1971-2017", "n_anios": 47, "nacional": true}, {"bna": "1720004", "nombre": "Puchultiza", "tipo": "pluviometrica", "var": "pr", "archivo": "1720004_pr.json", "lat": -19.4136, "lon": -68.9422, "altitud_m": 4300.0, "cuenca": "Pampa Del Tamarugal", "periodo": "1982-1988", "n_anios": 7, "nacional": true}, {"bna": "1720006", "nombre": "Chiapa", "tipo": "pluviometrica", "var": "pr", "archivo": "1720006_pr.json", "lat": -19.5369, "lon": -69.205, "altitud_m": 3155.0, "cuenca": "Pampa Del Tamarugal", "periodo": "2012-2017", "n_anios": 6, "nacional": true}, {"bna": "1730020", "nombre": "Chuzmiza", "tipo": "pluviometrica", "var": "pr", "archivo": "1730020_pr.json", "lat": -19.6831, "lon": -69.1833, "altitud_m": 3400.0, "cuenca": "Pampa Del Tamarugal", "periodo": "1988-2017", "n_anios": 30, "nacional": true}, {"bna": "1730015", "nombre": "Pampa Lirima Dcp", "tipo": "pluviometrica", "var": "pr", "archivo": "1730015_pr.json", "lat": -19.7653, "lon": -68.8581, "altitud_m": 5100.0, "cuenca": "Pampa Del Tamarugal", "periodo": "1982-1984", "n_anios": 3, "nacional": true}, {"bna": "1730007", "nombre": "Q. Tarapaca En Sibaya", "tipo": "pluviometrica", "var": "pr", "archivo": "1730007_pr.json", "lat": -19.7831, "lon": -69.1433, "altitud_m": 2830.0, "cuenca": "Pampa Del Tamarugal", "periodo": "2004-2018", "n_anios": 15, "nacional": true}, {"bna": "1730019", "nombre": "Mocha", "tipo": "pluviometrica", "var": "pr", "archivo": "1730019_pr.json", "lat": -19.8097, "lon": -69.2731, "altitud_m": 2150.0, "cuenca": "Pampa Del Tamarugal", "periodo": "1988-2017", "n_anios": 30, "nacional": true}, {"bna": "1730016", "nombre": "Pampa Lirima", "tipo": "pluviometrica", "var": "pr", "archivo": "1730016_pr.json", "lat": -19.8472, "lon": -68.8544, "altitud_m": 4076.0, "cuenca": "Pampa Del Tamarugal", "periodo": "1977-1989", "n_anios": 13, "nacional": true}, {"bna": "1042001", "nombre": "Cancosa", "tipo": "pluviometrica", "var": "pr", "archivo": "1042001_pr.json", "lat": -19.8553, "lon": -68.6017, "altitud_m": 3930.0, "cuenca": "Altiplanicas", "periodo": "1976-2012", "n_anios": 37, "nacional": true}, {"bna": "1044001", "nombre": "Rio Cancosa En El Tambo", "tipo": "pluviometrica", "var": "pr", "archivo": "1044001_pr.json", "lat": -19.8586, "lon": -68.5858, "altitud_m": 4000.0, "cuenca": "Altiplanicas", "periodo": "2012-2017", "n_anios": 6, "nacional": true}, {"bna": "1730017", "nombre": "Poroma", "tipo": "pluviometrica", "var": "pr", "archivo": "1730017_pr.json", "lat": -19.8719, "lon": -69.1831, "altitud_m": 2880.0, "cuenca": "Pampa Del Tamarugal", "periodo": "1968-2017", "n_anios": 50, "nacional": true}, {"bna": "1730018", "nombre": "Lagunillas (Pampa Lirima)", "tipo": "pluviometrica", "var": "pr", "archivo": "1730018_pr.json", "lat": -19.9333, "lon": -68.8369, "altitud_m": 4020.0, "cuenca": "Pampa Del Tamarugal", "periodo": "1982-2017", "n_anios": 36, "nacional": true}, {"bna": "1042002", "nombre": "Huaytani", "tipo": "pluviometrica", "var": "pr", "archivo": "1042002_pr.json", "lat": -20.0003, "lon": -68.5706, "altitud_m": 3950.0, "cuenca": "Altiplanicas", "periodo": "1982-2016", "n_anios": 35, "nacional": true}, {"bna": "1740001", "nombre": "Parca", "tipo": "pluviometrica", "var": "pr", "archivo": "1740001_pr.json", "lat": -20.0122, "lon": -69.2033, "altitud_m": 2650.0, "cuenca": "Pampa Del Tamarugal", "periodo": "1977-2016", "n_anios": 40, "nacional": true}, {"bna": "1050007", "nombre": "Coyacagua", "tipo": "pluviometrica", "var": "pr", "archivo": "1050007_pr.json", "lat": -20.0531, "lon": -68.8075, "altitud_m": 4013.0, "cuenca": "Altiplanicas", "periodo": "1961-2017", "n_anios": 57, "nacional": true}, {"bna": "1740002", "nombre": "Cerro Colorado", "tipo": "pluviometrica", "var": "pr", "archivo": "1740002_pr.json", "lat": -20.065, "lon": -69.2703, "altitud_m": 2510.0, "cuenca": "Pampa Del Tamarugal", "periodo": "1993-2017", "n_anios": 25, "nacional": true}, {"bna": "1750003", "nombre": "Mamia", "tipo": "pluviometrica", "var": "pr", "archivo": "1750003_pr.json", "lat": -20.0756, "lon": -69.2147, "altitud_m": 2730.0, "cuenca": "Pampa Del Tamarugal", "periodo": "1986-2017", "n_anios": 32, "nacional": true}, {"bna": "1050009", "nombre": "Diablo Marca", "tipo": "pluviometrica", "var": "pr", "archivo": "1050009_pr.json", "lat": -20.1044, "lon": -68.9681, "altitud_m": 4585.0, "cuenca": "Altiplanicas", "periodo": "2011-2016", "n_anios": 6, "nacional": true}, {"bna": "1050004", "nombre": "Rio Collacagua En Peablanca", "tipo": "pluviometrica", "var": "pr", "archivo": "1050004_pr.json", "lat": -20.1119, "lon": -68.8408, "altitud_m": 3853.0, "cuenca": "Altiplanicas", "periodo": "2014-2016", "n_anios": 3, "nacional": true}, {"bna": "1700010", "nombre": "Huara En Fuerte Baquedano", "tipo": "pluviometrica", "var": "pr", "archivo": "1700010_pr.json", "lat": -20.1308, "lon": -69.7497, "altitud_m": 1100.0, "cuenca": "Pampa Del Tamarugal", "periodo": "1993-2017", "n_anios": 25, "nacional": true}, {"bna": "1051004", "nombre": "Altos Del Huasco", "tipo": "pluviometrica", "var": "pr", "archivo": "1051004_pr.json", "lat": -20.1703, "lon": -68.7703, "altitud_m": 4044.0, "cuenca": "Altiplanicas", "periodo": "2011-2016", "n_anios": 6, "nacional": true}, {"bna": "1750002", "nombre": "Sagasca", "tipo": "pluviometrica", "var": "pr", "archivo": "1750002_pr.json", "lat": -20.2033, "lon": -69.3397, "altitud_m": 1822.0, "cuenca": "Pampa Del Tamarugal", "periodo": "1977-1998", "n_anios": 22, "nacional": true}, {"bna": "1820001", "nombre": "Iquique", "tipo": "pluviometrica", "var": "pr", "archivo": "1820001_pr.json", "lat": -20.2153, "lon": -70.1361, "altitud_m": 50.0, "cuenca": "Costeras Tilviche-Loa", "periodo": "1984-2017", "n_anios": 34, "nacional": true}, {"bna": "1051003", "nombre": "Salar Huasco", "tipo": "pluviometrica", "var": "pr", "archivo": "1051003_pr.json", "lat": -20.2761, "lon": -68.8861, "altitud_m": 3800.0, "cuenca": "Altiplanicas", "periodo": "1981-1982", "n_anios": 2, "nacional": true}, {"bna": "1050010", "nombre": "Sillillica", "tipo": "pluviometrica", "var": "pr", "archivo": "1050010_pr.json", "lat": -20.3219, "lon": -68.8936, "altitud_m": 3840.0, "cuenca": "Altiplanicas", "periodo": "2011-2016", "n_anios": 6, "nacional": true}, {"bna": "1700008", "nombre": "Esmeralda", "tipo": "pluviometrica", "var": "pr", "archivo": "1700008_pr.json", "lat": -20.4842, "lon": -69.3814, "altitud_m": 1115.0, "cuenca": "Pampa Del Tamarugal", "periodo": "1966-1972", "n_anios": 7, "nacional": true}, {"bna": "1700009", "nombre": "Coposa", "tipo": "pluviometrica", "var": "pr", "archivo": "1700009_pr.json", "lat": -20.7086, "lon": -68.6942, "altitud_m": 3760.0, "cuenca": "Pampa Del Tamarugal", "periodo": "1982-2017", "n_anios": 36, "nacional": true}, {"bna": "2113005", "nombre": "Guatacondo Dga", "tipo": "pluviometrica", "var": "pr", "archivo": "2113005_pr.json", "lat": -20.9272, "lon": -69.0456, "altitud_m": 2460.0, "cuenca": "Rio Loa", "periodo": "1977-2017", "n_anios": 41, "nacional": true}, {"bna": "1770001", "nombre": "Copaquire", "tipo": "pluviometrica", "var": "pr", "archivo": "1770001_pr.json", "lat": -20.9303, "lon": -68.8922, "altitud_m": 3540.0, "cuenca": "Pampa Del Tamarugal", "periodo": "1977-2011", "n_anios": 35, "nacional": true}, {"bna": "2113001", "nombre": "Rio Huatacondo En Copaquire", "tipo": "pluviometrica", "var": "pr", "archivo": "2113001_pr.json", "lat": -20.9333, "lon": -68.8833, "altitud_m": 3540.0, "cuenca": "Rio Loa", "periodo": "2011-2017", "n_anios": 7, "nacional": true}, {"bna": "1080001", "nombre": "Ujina", "tipo": "pluviometrica", "var": "pr", "archivo": "1080001_pr.json", "lat": -20.9714, "lon": -68.6275, "altitud_m": 4300.0, "cuenca": "Altiplanicas", "periodo": "1974-2017", "n_anios": 44, "nacional": true}, {"bna": "1080002", "nombre": "Collahuasi", "tipo": "pluviometrica", "var": "pr", "archivo": "1080002_pr.json", "lat": -20.9961, "lon": -68.8019, "altitud_m": 4250.0, "cuenca": "Altiplanicas", "periodo": "1971-1991", "n_anios": 21, "nacional": true}, {"bna": "2105031", "nombre": "Amincha", "tipo": "pluviometrica", "var": "pr", "archivo": "2105031_pr.json", "lat": -21.2006, "lon": -68.3394, "altitud_m": 3860.0, "cuenca": "Rio Loa", "periodo": "1978-1981", "n_anios": 4, "nacional": true}, {"bna": "2000001", "nombre": "Ollague", "tipo": "pluviometrica", "var": "pr", "archivo": "2000001_pr.json", "lat": -21.2233, "lon": -68.2494, "altitud_m": 3700.0, "cuenca": "Fronterizas Salar Michincha-R.Loa", "periodo": "1971-2018", "n_anios": 48, "nacional": true}, {"bna": "2020001", "nombre": "Cebollar", "tipo": "pluviometrica", "var": "pr", "archivo": "2020001_pr.json", "lat": -21.5311, "lon": -68.3386, "altitud_m": 3730.0, "cuenca": "Fronterizas Salar Michincha-R.Loa", "periodo": "1900-2006", "n_anios": 107, "nacional": true}, {"bna": "2101003", "nombre": "Lequena", "tipo": "pluviometrica", "var": "pr", "archivo": "2101003_pr.json", "lat": -21.6553, "lon": -68.6611, "altitud_m": 3320.0, "cuenca": "Rio Loa", "periodo": "1973-2017", "n_anios": 45, "nacional": true}, {"bna": "2101001", "nombre": "Rio Loa Antes Represa Lequena", "tipo": "pluviometrica", "var": "pr", "archivo": "2101001_pr.json", "lat": -21.6558, "lon": -68.6622, "altitud_m": 3315.0, "cuenca": "Rio Loa", "periodo": "2001-2018", "n_anios": 18, "nacional": true}, {"bna": "2112008", "nombre": "Quillagua", "tipo": "pluviometrica", "var": "pr", "archivo": "2112008_pr.json", "lat": -21.6603, "lon": -69.5358, "altitud_m": 802.0, "cuenca": "Rio Loa", "periodo": "1900-2017", "n_anios": 118, "nacional": true}, {"bna": "2020002", "nombre": "Ascotan", "tipo": "pluviometrica", "var": "pr", "archivo": "2020002_pr.json", "lat": -21.7253, "lon": -68.2756, "altitud_m": 3970.0, "cuenca": "Fronterizas Salar Michincha-R.Loa", "periodo": "1974-2017", "n_anios": 44, "nacional": true}, {"bna": "2111004", "nombre": "Tranque Sloman", "tipo": "pluviometrica", "var": "pr", "archivo": "2111004_pr.json", "lat": -21.8506, "lon": -69.5139, "altitud_m": 985.0, "cuenca": "Rio Loa", "periodo": "1996-2004", "n_anios": 9, "nacional": true}, {"bna": "2102005", "nombre": "Quinchamale", "tipo": "pluviometrica", "var": "pr", "archivo": "2102005_pr.json", "lat": -21.9053, "lon": -68.5964, "altitud_m": 3080.0, "cuenca": "Rio Loa", "periodo": "1995-2017", "n_anios": 23, "nacional": true}, {"bna": "2103007", "nombre": "San Pedro De Conchi", "tipo": "pluviometrica", "var": "pr", "archivo": "2103007_pr.json", "lat": -21.9333, "lon": -68.5364, "altitud_m": 3217.0, "cuenca": "Rio Loa", "periodo": "1970-1993", "n_anios": 24, "nacional": true}, {"bna": "2103008", "nombre": "Parshall N 2", "tipo": "pluviometrica", "var": "pr", "archivo": "2103008_pr.json", "lat": -21.9428, "lon": -68.5175, "altitud_m": 3318.0, "cuenca": "Rio Loa", "periodo": "1969-2015", "n_anios": 47, "nacional": true}, {"bna": "2104007", "nombre": "Conchi Viejo", "tipo": "pluviometrica", "var": "pr", "archivo": "2104007_pr.json", "lat": -21.95, "lon": -68.7239, "altitud_m": 3491.0, "cuenca": "Rio Loa", "periodo": "1900-2017", "n_anios": 118, "nacional": true}, {"bna": "2103009", "nombre": "Ojos San Pedro", "tipo": "pluviometrica", "var": "pr", "archivo": "2103009_pr.json", "lat": -21.9706, "lon": -68.3128, "altitud_m": 3800.0, "cuenca": "Rio Loa", "periodo": "1900-2017", "n_anios": 118, "nacional": true}, {"bna": "2103014", "nombre": "Rio Siloli Antes B.T. Fcab", "tipo": "pluviometrica", "var": "pr", "archivo": "2103014_pr.json", "lat": -22.0103, "lon": -68.0269, "altitud_m": 4000.0, "cuenca": "Rio Loa", "periodo": "2012-2018", "n_anios": 7, "nacional": true}, {"bna": "2103012", "nombre": "Silala", "tipo": "pluviometrica", "var": "pr", "archivo": "2103012_pr.json", "lat": -22.0139, "lon": -68.0289, "altitud_m": 4305.0, "cuenca": "Rio Loa", "periodo": "2001-2017", "n_anios": 17, "nacional": true}, {"bna": "2104008", "nombre": "Conchi Embalse", "tipo": "pluviometrica", "var": "pr", "archivo": "2104008_pr.json", "lat": -22.025, "lon": -68.6242, "altitud_m": 3010.0, "cuenca": "Rio Loa", "periodo": "1967-2017", "n_anios": 51, "nacional": true}, {"bna": "2104009", "nombre": "Conchi Muro Embalse", "tipo": "pluviometrica", "var": "pr", "archivo": "2104009_pr.json", "lat": -22.0267, "lon": -68.6208, "altitud_m": 3000.0, "cuenca": "Rio Loa", "periodo": "1978-1991", "n_anios": 14, "nacional": true}, {"bna": "2103010", "nombre": "Inacaliri", "tipo": "pluviometrica", "var": "pr", "archivo": "2103010_pr.json", "lat": -22.0278, "lon": -68.0661, "altitud_m": 4040.0, "cuenca": "Rio Loa", "periodo": "1900-2017", "n_anios": 118, "nacional": true}, {"bna": "2104002", "nombre": "Rio Loa En Salida Embalse Conchi", "tipo": "pluviometrica", "var": "pr", "archivo": "2104002_pr.json", "lat": -22.0278, "lon": -68.6208, "altitud_m": 2950.0, "cuenca": "Rio Loa", "periodo": "2012-2017", "n_anios": 6, "nacional": true}, {"bna": "2210002", "nombre": "Tocopilla", "tipo": "pluviometrica", "var": "pr", "archivo": "2210002_pr.json", "lat": -22.0797, "lon": -70.1897, "altitud_m": 150.0, "cuenca": "Costeras R.Loa-Q.Caracoles", "periodo": "1900-2017", "n_anios": 118, "nacional": true}, {"bna": "2105014", "nombre": "Cupo", "tipo": "pluviometrica", "var": "pr", "archivo": "2105014_pr.json", "lat": -22.1147, "lon": -68.3167, "altitud_m": 3370.0, "cuenca": "Rio Loa", "periodo": "1900-2017", "n_anios": 118, "nacional": true}, {"bna": "2105016", "nombre": "Linzor", "tipo": "pluviometrica", "var": "pr", "archivo": "2105016_pr.json", "lat": -22.2297, "lon": -68.0228, "altitud_m": 4100.0, "cuenca": "Rio Loa", "periodo": "1973-2018", "n_anios": 46, "nacional": true}, {"bna": "2105015", "nombre": "Turi", "tipo": "pluviometrica", "var": "pr", "archivo": "2105015_pr.json", "lat": -22.2408, "lon": -68.2881, "altitud_m": 3070.0, "cuenca": "Rio Loa", "periodo": "1981-1993", "n_anios": 13, "nacional": true}, {"bna": "2105017", "nombre": "Toconce", "tipo": "pluviometrica", "var": "pr", "archivo": "2105017_pr.json", "lat": -22.2592, "lon": -68.1733, "altitud_m": 3310.0, "cuenca": "Rio Loa", "periodo": "1972-2017", "n_anios": 46, "nacional": true}, {"bna": "2105018", "nombre": "Ayquina", "tipo": "pluviometrica", "var": "pr", "archivo": "2105018_pr.json", "lat": -22.2753, "lon": -68.3183, "altitud_m": 3031.0, "cuenca": "Rio Loa", "periodo": "1967-2017", "n_anios": 51, "nacional": true}, {"bna": "2105001", "nombre": "Rio Salado A. J. Curti", "tipo": "pluviometrica", "var": "pr", "archivo": "2105001_pr.json", "lat": -22.2792, "lon": -68.2428, "altitud_m": 3080.0, "cuenca": "Rio Loa", "periodo": "2012-2013", "n_anios": 2, "nacional": true}, {"bna": "2105019", "nombre": "Sifon Ayquina", "tipo": "pluviometrica", "var": "pr", "archivo": "2105019_pr.json", "lat": -22.2833, "lon": -68.3497, "altitud_m": 3000.0, "cuenca": "Rio Loa", "periodo": "1975-1977", "n_anios": 3, "nacional": true}, {"bna": "2105020", "nombre": "Salado Embalse", "tipo": "pluviometrica", "var": "pr", "archivo": "2105020_pr.json", "lat": -22.2856, "lon": -68.2028, "altitud_m": 3200.0, "cuenca": "Rio Loa", "periodo": "1975-2018", "n_anios": 44, "nacional": true}, {"bna": "2105002", "nombre": "Rio Salado En Sifon Ayquina", "tipo": "pluviometrica", "var": "pr", "archivo": "2105002_pr.json", "lat": -22.2894, "lon": -68.3447, "altitud_m": 2980.0, "cuenca": "Rio Loa", "periodo": "2001-2018", "n_anios": 18, "nacional": true}, {"bna": "2105021", "nombre": "Caspana", "tipo": "pluviometrica", "var": "pr", "archivo": "2105021_pr.json", "lat": -22.3367, "lon": -68.2122, "altitud_m": 3260.0, "cuenca": "Rio Loa", "periodo": "1971-2008", "n_anios": 38, "nacional": true}, {"bna": "2104010", "nombre": "Chiu-Chiu", "tipo": "pluviometrica", "var": "pr", "archivo": "2104010_pr.json", "lat": -22.3378, "lon": -68.6367, "altitud_m": 2524.0, "cuenca": "Rio Loa", "periodo": "1974-2017", "n_anios": 44, "nacional": true}, {"bna": "2105022", "nombre": "El Tatio", "tipo": "pluviometrica", "var": "pr", "archivo": "2105022_pr.json", "lat": -22.3711, "lon": -68.0133, "altitud_m": 4370.0, "cuenca": "Rio Loa", "periodo": "1977-2018", "n_anios": 42, "nacional": true}, {"bna": "2112009", "nombre": "Coya Sur", "tipo": "pluviometrica", "var": "pr", "archivo": "2112009_pr.json", "lat": -22.3939, "lon": -69.6225, "altitud_m": 1250.0, "cuenca": "Rio Loa", "periodo": "1974-1991", "n_anios": 18, "nacional": true}, {"bna": "2110013", "nombre": "Calama", "tipo": "pluviometrica", "var": "pr", "archivo": "2110013_pr.json", "lat": -22.4494, "lon": -68.9044, "altitud_m": 2300.0, "cuenca": "Rio Loa", "periodo": "1900-2018", "n_anios": 119, "nacional": true}, {"bna": "2510007", "nombre": "Rio Grande", "tipo": "pluviometrica", "var": "pr", "archivo": "2510007_pr.json", "lat": -22.6522, "lon": -68.1658, "altitud_m": 3250.0, "cuenca": "Salar De Atacama", "periodo": "1900-2017", "n_anios": 118, "nacional": true}, {"bna": "2700001", "nombre": "Sierra Gorda", "tipo": "pluviometrica", "var": "pr", "archivo": "2700001_pr.json", "lat": -22.8892, "lon": -69.3219, "altitud_m": 1616.0, "cuenca": "Quebrada Caracoles", "periodo": "1994-2018", "n_anios": 25, "nacional": true}, {"bna": "2510006", "nombre": "San Pedro De Atacama", "tipo": "pluviometrica", "var": "pr", "archivo": "2510006_pr.json", "lat": -22.9053, "lon": -68.2003, "altitud_m": 2450.0, "cuenca": "Salar De Atacama", "periodo": "1959-2016", "n_anios": 58, "nacional": true}, {"bna": "2500016", "nombre": "Toconao Experimental", "tipo": "pluviometrica", "var": "pr", "archivo": "2500016_pr.json", "lat": -23.1889, "lon": -67.9978, "altitud_m": 2500.0, "cuenca": "Salar De Atacama", "periodo": "1975-2009", "n_anios": 35, "nacional": true}, {"bna": "2500015", "nombre": "Toconao Reten", "tipo": "pluviometrica", "var": "pr", "archivo": "2500015_pr.json", "lat": -23.1936, "lon": -68.0094, "altitud_m": 2460.0, "cuenca": "Salar De Atacama", "periodo": "1975-1991", "n_anios": 17, "nacional": true}, {"bna": "2500021", "nombre": "Talabre", "tipo": "pluviometrica", "var": "pr", "archivo": "2500021_pr.json", "lat": -23.3125, "lon": -67.8878, "altitud_m": 3300.0, "cuenca": "Salar De Atacama", "periodo": "1900-2017", "n_anios": 118, "nacional": true}, {"bna": "2710002", "nombre": "Baquedano", "tipo": "pluviometrica", "var": "pr", "archivo": "2710002_pr.json", "lat": -23.3336, "lon": -69.8397, "altitud_m": 1032.0, "cuenca": "Quebrada Caracoles", "periodo": "1900-2018", "n_anios": 119, "nacional": true}, {"bna": "2500017", "nombre": "Camar", "tipo": "pluviometrica", "var": "pr", "archivo": "2500017_pr.json", "lat": -23.4069, "lon": -67.9631, "altitud_m": 2700.0, "cuenca": "Salar De Atacama", "periodo": "1900-2017", "n_anios": 118, "nacional": true}, {"bna": "2240000", "nombre": "Liceo CientÍFico Humanista La Chimba", "tipo": "pluviometrica", "var": "pr", "archivo": "2240000_pr.json", "lat": -23.5544, "lon": -70.3933, "altitud_m": 0.0, "cuenca": "Costeras R.Loa-Q.Caracoles", "periodo": "2015-2016", "n_anios": 2, "nacional": true}, {"bna": "2500019", "nombre": "Socaire", "tipo": "pluviometrica", "var": "pr", "archivo": "2500019_pr.json", "lat": -23.5869, "lon": -67.8925, "altitud_m": 3251.0, "cuenca": "Salar De Atacama", "periodo": "1900-2016", "n_anios": 117, "nacional": true}, {"bna": "2710003", "nombre": "Antofagasta", "tipo": "pluviometrica", "var": "pr", "archivo": "2710003_pr.json", "lat": -23.5975, "lon": -70.3867, "altitud_m": 50.0, "cuenca": "Quebrada Caracoles", "periodo": "1900-2017", "n_anios": 118, "nacional": true}, {"bna": "2240001", "nombre": "Escuela FundaciÓN Minera Escondida", "tipo": "pluviometrica", "var": "pr", "archivo": "2240001_pr.json", "lat": -23.6144, "lon": -70.3703, "altitud_m": 0.0, "cuenca": "Costeras R.Loa-Q.Caracoles", "periodo": "2015-2017", "n_anios": 3, "nacional": true}, {"bna": "2500020", "nombre": "Peine", "tipo": "pluviometrica", "var": "pr", "archivo": "2500020_pr.json", "lat": -23.6842, "lon": -68.0581, "altitud_m": 2460.0, "cuenca": "Salar De Atacama", "periodo": "1974-2017", "n_anios": 44, "nacional": true}, {"bna": "2900000", "nombre": "Universidad De Antofagasta", "tipo": "pluviometrica", "var": "pr", "archivo": "2900000_pr.json", "lat": -23.7017, "lon": -70.4208, "altitud_m": 0.0, "cuenca": "Qs.Entre Q. La Negra Y Q. Pan De Azucar", "periodo": "2015-2017", "n_anios": 3, "nacional": true}, {"bna": "2640001", "nombre": "Imilac", "tipo": "pluviometrica", "var": "pr", "archivo": "2640001_pr.json", "lat": -24.1631, "lon": -68.7828, "altitud_m": 3000.0, "cuenca": "Endorreicas Salar Atacama-Vertiente Pacifico", "periodo": "1972-1977", "n_anios": 6, "nacional": true}, {"bna": "2660001", "nombre": "Monturaqui", "tipo": "pluviometrica", "var": "pr", "archivo": "2660001_pr.json", "lat": -24.3414, "lon": -68.4353, "altitud_m": 3430.0, "cuenca": "Endorreicas Salar Atacama-Vertiente Pacifico", "periodo": "1974-1979", "n_anios": 6, "nacional": true}, {"bna": "2810001", "nombre": "Cachinal De La Sierra", "tipo": "pluviometrica", "var": "pr", "archivo": "2810001_pr.json", "lat": -24.9611, "lon": -69.52, "altitud_m": 2640.0, "cuenca": "Quebrada La Negra", "periodo": "1986-1986", "n_anios": 1, "nacional": true}, {"bna": "2941001", "nombre": "Vaquillas", "tipo": "pluviometrica", "var": "pr", "archivo": "2941001_pr.json", "lat": -25.3958, "lon": -69.2986, "altitud_m": 3250.0, "cuenca": "Costeras Entre Q. La Negra Y Q. Pan De Azucar", "periodo": "1987-1988", "n_anios": 2, "nacional": true}, {"bna": "2942001", "nombre": "Aguas Verdes", "tipo": "pluviometrica", "var": "pr", "archivo": "2942001_pr.json", "lat": -25.4, "lon": -69.9633, "altitud_m": 1560.0, "cuenca": "Costeras Entre Q. La Negra Y Q. Pan De Azucar", "periodo": "1987-2017", "n_anios": 31, "nacional": true}, {"bna": "2943002", "nombre": "Tal-Tal (Dcp)", "tipo": "pluviometrica", "var": "pr", "archivo": "2943002_pr.json", "lat": -25.4033, "lon": -70.4797, "altitud_m": 0.0, "cuenca": "Qs.Entre Q. La Negra Y Q. Pan De Azucar", "periodo": "2015-2018", "n_anios": 4, "nacional": true}, {"bna": "2943001", "nombre": "Tal-Tal", "tipo": "pluviometrica", "var": "pr", "archivo": "2943001_pr.json", "lat": -25.4047, "lon": -70.4819, "altitud_m": 9.0, "cuenca": "Costeras Entre Q. La Negra Y Q. Pan De Azucar", "periodo": "1900-2016", "n_anios": 117, "nacional": true}, {"bna": "2960001", "nombre": "Sierra Overa", "tipo": "pluviometrica", "var": "pr", "archivo": "2960001_pr.json", "lat": -25.78, "lon": -69.8881, "altitud_m": 1900.0, "cuenca": "Costeras Entre Q. La Negra Y Q. Pan De Azucar", "periodo": "1986-1988", "n_anios": 3, "nacional": true}, {"bna": "3210001", "nombre": "Las Vegas", "tipo": "pluviometrica", "var": "pr", "archivo": "3210001_pr.json", "lat": -26.6781, "lon": -69.6656, "altitud_m": 2250.0, "cuenca": "Rio Salado", "periodo": "1984-2018", "n_anios": 35, "nacional": true}, {"bna": "3340001", "nombre": "Caldera", "tipo": "pluviometrica", "var": "pr", "archivo": "3340001_pr.json", "lat": -27.0692, "lon": -70.8156, "altitud_m": 15.0, "cuenca": "Costeras E Islas R.Salado-R.Copiapo", "periodo": "1992-2017", "n_anios": 26, "nacional": true}, {"bna": "3441001", "nombre": "Pastos Grandes", "tipo": "pluviometrica", "var": "pr", "archivo": "3441001_pr.json", "lat": -27.1142, "lon": -69.5642, "altitud_m": 2260.0, "cuenca": "Rio Copiapo", "periodo": "1966-2017", "n_anios": 52, "nacional": true}, {"bna": "3450004", "nombre": "Copiapo", "tipo": "pluviometrica", "var": "pr", "archivo": "3450004_pr.json", "lat": -27.3772, "lon": -70.3308, "altitud_m": 385.0, "cuenca": "Rio Copiapo", "periodo": "1971-2018", "n_anios": 48, "nacional": true}, {"bna": "3431004", "nombre": "Elibor Campamento", "tipo": "pluviometrica", "var": "pr", "archivo": "3431004_pr.json", "lat": -27.7167, "lon": -70.1953, "altitud_m": 750.0, "cuenca": "Rio Copiapo", "periodo": "1978-2017", "n_anios": 40, "nacional": true}, {"bna": "3431001", "nombre": "Rio Copiapo En La Puerta", "tipo": "pluviometrica", "var": "pr", "archivo": "3431001_pr.json", "lat": -27.8044, "lon": -70.1269, "altitud_m": 915.0, "cuenca": "Rio Copiapo", "periodo": "2010-2017", "n_anios": 8, "nacional": true}, {"bna": "3430007", "nombre": "Los Loros", "tipo": "pluviometrica", "var": "pr", "archivo": "3430007_pr.json", "lat": -27.8317, "lon": -70.1119, "altitud_m": 940.0, "cuenca": "Rio Copiapo", "periodo": "1967-2017", "n_anios": 51, "nacional": true}, {"bna": "3404002", "nombre": "Jorquera En La Guardia", "tipo": "pluviometrica", "var": "pr", "archivo": "3404002_pr.json", "lat": -27.8364, "lon": -69.755, "altitud_m": 2000.0, "cuenca": "Rio Copiapo", "periodo": "1966-2017", "n_anios": 52, "nacional": true}, {"bna": "3604001", "nombre": "El Totoral", "tipo": "pluviometrica", "var": "pr", "archivo": "3604001_pr.json", "lat": -27.9022, "lon": -70.9575, "altitud_m": 150.0, "cuenca": "Q.Totoral Y Costeras Hasta Q.Carrizal", "periodo": "1987-2017", "n_anios": 31, "nacional": true}, {"bna": "3430006", "nombre": "Lautaro Embalse", "tipo": "pluviometrica", "var": "pr", "archivo": "3430006_pr.json", "lat": -27.9783, "lon": -70.0033, "altitud_m": 1110.0, "cuenca": "Rio Copiapo", "periodo": "1930-2018", "n_anios": 89, "nacional": true}, {"bna": "3430003", "nombre": "Rio Copiapo En Pastillo", "tipo": "pluviometrica", "var": "pr", "archivo": "3430003_pr.json", "lat": -28.0003, "lon": -69.9747, "altitud_m": 1300.0, "cuenca": "Rio Copiapo", "periodo": "2013-2018", "n_anios": 6, "nacional": true}, {"bna": "3414001", "nombre": "Rio Pulido En Vertedero", "tipo": "pluviometrica", "var": "pr", "archivo": "3414001_pr.json", "lat": -28.0858, "lon": -69.9408, "altitud_m": 1310.0, "cuenca": "Rio Copiapo", "periodo": "2016-2018", "n_anios": 3, "nacional": true}, {"bna": "3701001", "nombre": "Canto De Agua", "tipo": "pluviometrica", "var": "pr", "archivo": "3701001_pr.json", "lat": -28.0992, "lon": -70.7811, "altitud_m": 330.0, "cuenca": "Quebrada Carrizal Y Costeras Hasta R. Huasco", "periodo": "1987-2017", "n_anios": 31, "nacional": true}, {"bna": "3421004", "nombre": "Manflas", "tipo": "pluviometrica", "var": "pr", "archivo": "3421004_pr.json", "lat": -28.1336, "lon": -69.975, "altitud_m": 1410.0, "cuenca": "Rio Copiapo", "periodo": "1966-2017", "n_anios": 52, "nacional": true}, {"bna": "3414002", "nombre": "Iglesia Colorada", "tipo": "pluviometrica", "var": "pr", "archivo": "3414002_pr.json", "lat": -28.1572, "lon": -69.8808, "altitud_m": 1550.0, "cuenca": "Rio Copiapo", "periodo": "1988-2017", "n_anios": 30, "nacional": true}, {"bna": "3412001", "nombre": "Torin En El Potro", "tipo": "pluviometrica", "var": "pr", "archivo": "3412001_pr.json", "lat": -28.2767, "lon": -69.7481, "altitud_m": 2800.0, "cuenca": "Rio Copiapo", "periodo": "1990-1992", "n_anios": 3, "nacional": true}, {"bna": "3826002", "nombre": "Huasco", "tipo": "pluviometrica", "var": "pr", "archivo": "3826002_pr.json", "lat": -28.4669, "lon": -71.2214, "altitud_m": 15.0, "cuenca": "Rio Huasco", "periodo": "1976-1992", "n_anios": 17, "nacional": true}, {"bna": "3826003", "nombre": "Huasco Bajo", "tipo": "pluviometrica", "var": "pr", "archivo": "3826003_pr.json", "lat": -28.4725, "lon": -71.1931, "altitud_m": 50.0, "cuenca": "Rio Huasco", "periodo": "1993-2017", "n_anios": 25, "nacional": true}, {"bna": "3825004", "nombre": "Freirina", "tipo": "pluviometrica", "var": "pr", "archivo": "3825004_pr.json", "lat": -28.5072, "lon": -71.0806, "altitud_m": 100.0, "cuenca": "Rio Huasco", "periodo": "1987-2017", "n_anios": 31, "nacional": true}, {"bna": "3823004", "nombre": "La Compaia (Vallenar)", "tipo": "pluviometrica", "var": "pr", "archivo": "3823004_pr.json", "lat": -28.5761, "lon": -70.8081, "altitud_m": 430.0, "cuenca": "Rio Huasco", "periodo": "1993-2017", "n_anios": 25, "nacional": true}, {"bna": "3823003", "nombre": "Vallenar Dga", "tipo": "pluviometrica", "var": "pr", "archivo": "3823003_pr.json", "lat": -28.5861, "lon": -70.7397, "altitud_m": 420.0, "cuenca": "Rio Huasco", "periodo": "1972-2018", "n_anios": 47, "nacional": true}, {"bna": "3823002", "nombre": "Vallenar Dmc", "tipo": "pluviometrica", "var": "pr", "archivo": "3823002_pr.json", "lat": -28.5936, "lon": -70.7572, "altitud_m": 535.0, "cuenca": "Rio Huasco", "periodo": "1978-1983", "n_anios": 6, "nacional": true}, {"bna": "3820004", "nombre": "Santa Juana", "tipo": "pluviometrica", "var": "pr", "archivo": "3820004_pr.json", "lat": -28.6672, "lon": -70.6625, "altitud_m": 560.0, "cuenca": "Rio Huasco", "periodo": "1961-2018", "n_anios": 58, "nacional": true}, {"bna": "3820002", "nombre": "Rio Huasco En Chepica", "tipo": "pluviometrica", "var": "pr", "archivo": "3820002_pr.json", "lat": -28.6997, "lon": -70.55, "altitud_m": 600.0, "cuenca": "Rio Huasco", "periodo": "2015-2017", "n_anios": 3, "nacional": true}, {"bna": "3820001", "nombre": "Rio Huasco En Algodones", "tipo": "pluviometrica", "var": "pr", "archivo": "3820001_pr.json", "lat": -28.7306, "lon": -70.5067, "altitud_m": 750.0, "cuenca": "Rio Huasco", "periodo": "2003-2017", "n_anios": 15, "nacional": true}, {"bna": "3804007", "nombre": "Junta Del Carmen", "tipo": "pluviometrica", "var": "pr", "archivo": "3804007_pr.json", "lat": -28.7539, "lon": -70.4817, "altitud_m": 770.0, "cuenca": "Rio Huasco", "periodo": "1948-2017", "n_anios": 70, "nacional": true}, {"bna": "3806002", "nombre": "El Transito", "tipo": "pluviometrica", "var": "pr", "archivo": "3806002_pr.json", "lat": -28.8731, "lon": -70.2822, "altitud_m": 1100.0, "cuenca": "Rio Huasco", "periodo": "1993-2018", "n_anios": 26, "nacional": true}, {"bna": "3801002", "nombre": "Junta Valerianos", "tipo": "pluviometrica", "var": "pr", "archivo": "3801002_pr.json", "lat": -28.9019, "lon": -70.0603, "altitud_m": 1800.0, "cuenca": "Rio Huasco", "periodo": "1990-1992", "n_anios": 3, "nacional": true}, {"bna": "3815004", "nombre": "San Felix", "tipo": "pluviometrica", "var": "pr", "archivo": "3815004_pr.json", "lat": -28.9311, "lon": -70.4614, "altitud_m": 1150.0, "cuenca": "Rio Huasco", "periodo": "1969-2017", "n_anios": 49, "nacional": true}, {"bna": "3802001", "nombre": "Rio Conay En Las Lozas", "tipo": "pluviometrica", "var": "pr", "archivo": "3802001_pr.json", "lat": -28.9456, "lon": -70.1011, "altitud_m": 0.0, "cuenca": "Rio Huasco", "periodo": "2015-2018", "n_anios": 4, "nacional": true}, {"bna": "3802006", "nombre": "Conay En Albaricoque", "tipo": "pluviometrica", "var": "pr", "archivo": "3802006_pr.json", "lat": -28.9519, "lon": -70.1106, "altitud_m": 1600.0, "cuenca": "Rio Huasco", "periodo": "1999-2017", "n_anios": 19, "nacional": true}, {"bna": "3940001", "nombre": "Domeiko", "tipo": "pluviometrica", "var": "pr", "archivo": "3940001_pr.json", "lat": -28.9544, "lon": -70.8936, "altitud_m": 780.0, "cuenca": "Costeras E Islas Entre R.Huasco Y Cuarta Region", "periodo": "1994-2017", "n_anios": 24, "nacional": true}, {"bna": "3802005", "nombre": "Conay", "tipo": "pluviometrica", "var": "pr", "archivo": "3802005_pr.json", "lat": -28.975, "lon": -70.1533, "altitud_m": 1450.0, "cuenca": "Rio Huasco", "periodo": "1965-2017", "n_anios": 53, "nacional": true}, {"bna": "3804005", "nombre": "El Parral", "tipo": "pluviometrica", "var": "pr", "archivo": "3804005_pr.json", "lat": -28.9797, "lon": -70.1986, "altitud_m": 1400.0, "cuenca": "Rio Huasco", "periodo": "1993-2017", "n_anios": 25, "nacional": true}, {"bna": "3802004", "nombre": "Los Tambos", "tipo": "pluviometrica", "var": "pr", "archivo": "3802004_pr.json", "lat": -28.9817, "lon": -70.1881, "altitud_m": 1400.0, "cuenca": "Rio Huasco", "periodo": "1959-1992", "n_anios": 34, "nacional": true}, {"bna": "3814003", "nombre": "Rio Carmen En El Corral", "tipo": "pluviometrica", "var": "pr", "archivo": "3814003_pr.json", "lat": -29.1094, "lon": -70.4139, "altitud_m": 2000.0, "cuenca": "Rio Huasco", "periodo": "2015-2018", "n_anios": 4, "nacional": true}, {"bna": "3804006", "nombre": "El Corral", "tipo": "pluviometrica", "var": "pr", "archivo": "3804006_pr.json", "lat": -29.1383, "lon": -70.3778, "altitud_m": 1820.0, "cuenca": "Rio Huasco", "periodo": "1995-2017", "n_anios": 23, "nacional": true}, {"bna": "4120001", "nombre": "El Trapiche", "tipo": "pluviometrica", "var": "pr", "archivo": "4120001_pr.json", "lat": -29.3731, "lon": -71.1181, "altitud_m": 300.0, "cuenca": "Rio Los Choros", "periodo": "1979-2017", "n_anios": 39, "nacional": true}, {"bna": "4334001", "nombre": "Fundo San Antonio", "tipo": "pluviometrica", "var": "pr", "archivo": "4334001_pr.json", "lat": -29.8369, "lon": -71.1044, "altitud_m": 260.0, "cuenca": "Rio Elqui", "periodo": "1961-1963", "n_anios": 3, "nacional": true}, {"bna": "4306002", "nombre": "Huanta", "tipo": "pluviometrica", "var": "pr", "archivo": "4306002_pr.json", "lat": -29.8478, "lon": -70.3847, "altitud_m": 1240.0, "cuenca": "Rio Elqui", "periodo": "1989-2017", "n_anios": 29, "nacional": true}, {"bna": "4335002", "nombre": "La Serena (Escuela Agricola)", "tipo": "pluviometrica", "var": "pr", "archivo": "4335002_pr.json", "lat": -29.9061, "lon": -71.2556, "altitud_m": 15.0, "cuenca": "Rio Elqui", "periodo": "1971-2017", "n_anios": 47, "nacional": true}, {"bna": "4308001", "nombre": "Rio Turbio En Varillar", "tipo": "pluviometrica", "var": "pr", "archivo": "4308001_pr.json", "lat": -29.9458, "lon": -70.5328, "altitud_m": 890.0, "cuenca": "Rio Elqui", "periodo": "2014-2018", "n_anios": 5, "nacional": true}, {"bna": "4331004", "nombre": "Molino Yaco", "tipo": "pluviometrica", "var": "pr", "archivo": "4331004_pr.json", "lat": -29.9519, "lon": -70.28, "altitud_m": 1550.0, "cuenca": "Rio Elqui", "periodo": "1958-1965", "n_anios": 8, "nacional": true}, {"bna": "4302001", "nombre": "Rio Toro Antes Junta Rio La Laguna", "tipo": "pluviometrica", "var": "pr", "archivo": "4302001_pr.json", "lat": -29.9711, "lon": -70.0928, "altitud_m": 2165.0, "cuenca": "Rio Elqui", "periodo": "2014-2018", "n_anios": 5, "nacional": true}, {"bna": "4302014", "nombre": "Juntas", "tipo": "pluviometrica", "var": "pr", "archivo": "4302014_pr.json", "lat": -29.9769, "lon": -70.0944, "altitud_m": 2150.0, "cuenca": "Rio Elqui", "periodo": "1990-2017", "n_anios": 28, "nacional": true}, {"bna": "4308003", "nombre": "Rivadavia", "tipo": "pluviometrica", "var": "pr", "archivo": "4308003_pr.json", "lat": -29.9772, "lon": -70.5617, "altitud_m": 820.0, "cuenca": "Rio Elqui", "periodo": "1937-2017", "n_anios": 81, "nacional": true}, {"bna": "4314002", "nombre": "Rio Claro En Rivadavia", "tipo": "pluviometrica", "var": "pr", "archivo": "4314002_pr.json", "lat": -29.9781, "lon": -70.5525, "altitud_m": 820.0, "cuenca": "Rio Elqui", "periodo": "2015-2018", "n_anios": 4, "nacional": true}, {"bna": "4323007", "nombre": "Almendral", "tipo": "pluviometrica", "var": "pr", "archivo": "4323007_pr.json", "lat": -29.9822, "lon": -70.9186, "altitud_m": 370.0, "cuenca": "Rio Elqui", "periodo": "1958-2017", "n_anios": 60, "nacional": true}, {"bna": "4320001", "nombre": "Rio Elqui En Algarrobal", "tipo": "pluviometrica", "var": "pr", "archivo": "4320001_pr.json", "lat": -29.9953, "lon": -70.5867, "altitud_m": 760.0, "cuenca": "Rio Elqui", "periodo": "2011-2018", "n_anios": 8, "nacional": true}, {"bna": "4321001", "nombre": "Puclaro Embalse", "tipo": "pluviometrica", "var": "pr", "archivo": "4321001_pr.json", "lat": -29.9964, "lon": -70.8556, "altitud_m": 460.0, "cuenca": "Rio Elqui", "periodo": "1962-1966", "n_anios": 5, "nacional": true}, {"bna": "4400002", "nombre": "Pan De Azucar", "tipo": "pluviometrica", "var": "pr", "archivo": "4400002_pr.json", "lat": -30.0022, "lon": -71.2592, "altitud_m": 100.0, "cuenca": "Costeras Entre Elqui Y Limari", "periodo": "1978-1993", "n_anios": 16, "nacional": true}, {"bna": "4320003", "nombre": "Vicua (Inia)", "tipo": "pluviometrica", "var": "pr", "archivo": "4320003_pr.json", "lat": -30.0567, "lon": -70.7167, "altitud_m": 730.0, "cuenca": "Rio Elqui", "periodo": "1971-2017", "n_anios": 47, "nacional": true}, {"bna": "4314003", "nombre": "Monte Grande", "tipo": "pluviometrica", "var": "pr", "archivo": "4314003_pr.json", "lat": -30.0894, "lon": -70.4939, "altitud_m": 1120.0, "cuenca": "Rio Elqui", "periodo": "1958-2017", "n_anios": 60, "nacional": true}, {"bna": "4311003", "nombre": "Pisco Elqui Dmc", "tipo": "pluviometrica", "var": "pr", "archivo": "4311003_pr.json", "lat": -30.1217, "lon": -70.4933, "altitud_m": 1250.0, "cuenca": "Rio Elqui", "periodo": "1977-2017", "n_anios": 41, "nacional": true}, {"bna": "4313003", "nombre": "Cochiguaz", "tipo": "pluviometrica", "var": "pr", "archivo": "4313003_pr.json", "lat": -30.1414, "lon": -70.4047, "altitud_m": 1560.0, "cuenca": "Rio Elqui", "periodo": "1989-2017", "n_anios": 29, "nacional": true}, {"bna": "4311004", "nombre": "Los Nichos", "tipo": "pluviometrica", "var": "pr", "archivo": "4311004_pr.json", "lat": -30.1472, "lon": -70.4983, "altitud_m": 1330.0, "cuenca": "Rio Elqui", "periodo": "1977-2017", "n_anios": 41, "nacional": true}, {"bna": "4311005", "nombre": "La Ortiga", "tipo": "pluviometrica", "var": "pr", "archivo": "4311005_pr.json", "lat": -30.1939, "lon": -70.4819, "altitud_m": 1560.0, "cuenca": "Rio Elqui", "periodo": "1979-2017", "n_anios": 39, "nacional": true}, {"bna": "4301005", "nombre": "La Laguna Embalse", "tipo": "pluviometrica", "var": "pr", "archivo": "4301005_pr.json", "lat": -30.2033, "lon": -70.0422, "altitud_m": 3160.0, "cuenca": "Rio Elqui", "periodo": "1964-2017", "n_anios": 54, "nacional": true}, {"bna": "4502005", "nombre": "Hurtado", "tipo": "pluviometrica", "var": "pr", "archivo": "4502005_pr.json", "lat": -30.2867, "lon": -70.6961, "altitud_m": 1100.0, "cuenca": "Rio Limari", "periodo": "1943-2017", "n_anios": 75, "nacional": true}, {"bna": "4410001", "nombre": "Cerrillos Pobres", "tipo": "pluviometrica", "var": "pr", "archivo": "4410001_pr.json", "lat": -30.2964, "lon": -71.3881, "altitud_m": 150.0, "cuenca": "Costeras Entre Elqui Y Limari", "periodo": "1961-1970", "n_anios": 10, "nacional": true}, {"bna": "4502004", "nombre": "La Cortadera", "tipo": "pluviometrica", "var": "pr", "archivo": "4502004_pr.json", "lat": -30.3503, "lon": -70.77, "altitud_m": 920.0, "cuenca": "Rio Limari", "periodo": "1967-1973", "n_anios": 7, "nacional": true}, {"bna": "4501004", "nombre": "Las Breas", "tipo": "pluviometrica", "var": "pr", "archivo": "4501004_pr.json", "lat": -30.3694, "lon": -70.6131, "altitud_m": 1600.0, "cuenca": "Rio Limari", "periodo": "1943-1977", "n_anios": 35, "nacional": true}, {"bna": "4503003", "nombre": "Pichasca", "tipo": "pluviometrica", "var": "pr", "archivo": "4503003_pr.json", "lat": -30.3922, "lon": -70.8678, "altitud_m": 725.0, "cuenca": "Rio Limari", "periodo": "1946-2016", "n_anios": 71, "nacional": true}, {"bna": "4503002", "nombre": "Samo Alto", "tipo": "pluviometrica", "var": "pr", "archivo": "4503002_pr.json", "lat": -30.4094, "lon": -70.9386, "altitud_m": 600.0, "cuenca": "Rio Limari", "periodo": "1968-1989", "n_anios": 22, "nacional": true}, {"bna": "4501003", "nombre": "Pabellon", "tipo": "pluviometrica", "var": "pr", "archivo": "4501003_pr.json", "lat": -30.4111, "lon": -70.5544, "altitud_m": 1920.0, "cuenca": "Rio Limari", "periodo": "1968-2017", "n_anios": 50, "nacional": true}, {"bna": "4503001", "nombre": "Rio Hurtado En Angostura De Pangue", "tipo": "pluviometrica", "var": "pr", "archivo": "4503001_pr.json", "lat": -30.4386, "lon": -71.0022, "altitud_m": 485.0, "cuenca": "Rio Limari", "periodo": "2017-2018", "n_anios": 2, "nacional": true}, {"bna": "4502003", "nombre": "Estancia Chacay", "tipo": "pluviometrica", "var": "pr", "archivo": "4502003_pr.json", "lat": -30.4453, "lon": -70.7114, "altitud_m": 1380.0, "cuenca": "Rio Limari", "periodo": "1968-1971", "n_anios": 4, "nacional": true}, {"bna": "4501001", "nombre": "Rio Hurtado En San Agustin", "tipo": "pluviometrica", "var": "pr", "archivo": "4501001_pr.json", "lat": -30.4622, "lon": -70.5361, "altitud_m": 2035.0, "cuenca": "Rio Limari", "periodo": "2017-2018", "n_anios": 2, "nacional": true}, {"bna": "4506006", "nombre": "Bocatoma Canal Alimentador", "tipo": "pluviometrica", "var": "pr", "archivo": "4506006_pr.json", "lat": -30.4806, "lon": -71.0667, "altitud_m": 450.0, "cuenca": "Rio Limari", "periodo": "1951-1964", "n_anios": 14, "nacional": true}, {"bna": "4506007", "nombre": "Recoleta Embalse", "tipo": "pluviometrica", "var": "pr", "archivo": "4506007_pr.json", "lat": -30.5069, "lon": -71.0997, "altitud_m": 350.0, "cuenca": "Rio Limari", "periodo": "1943-2017", "n_anios": 75, "nacional": true}, {"bna": "4551004", "nombre": "Ovalle (Escuela Agricola)", "tipo": "pluviometrica", "var": "pr", "archivo": "4551004_pr.json", "lat": -30.5528, "lon": -71.1642, "altitud_m": 340.0, "cuenca": "Rio Limari", "periodo": "1980-1983", "n_anios": 4, "nacional": true}, {"bna": "4551005", "nombre": "Ovalle Dga", "tipo": "pluviometrica", "var": "pr", "archivo": "4551005_pr.json", "lat": -30.6006, "lon": -71.2, "altitud_m": 220.0, "cuenca": "Rio Limari", "periodo": "1971-2017", "n_anios": 47, "nacional": true}, {"bna": "4552002", "nombre": "La Torre", "tipo": "pluviometrica", "var": "pr", "archivo": "4552002_pr.json", "lat": -30.6164, "lon": -71.3742, "altitud_m": 120.0, "cuenca": "Rio Limari", "periodo": "1936-2017", "n_anios": 82, "nacional": true}, {"bna": "4540005", "nombre": "Sotaqui", "tipo": "pluviometrica", "var": "pr", "archivo": "4540005_pr.json", "lat": -30.6306, "lon": -71.1194, "altitud_m": 280.0, "cuenca": "Rio Limari", "periodo": "1954-2017", "n_anios": 64, "nacional": true}, {"bna": "4557001", "nombre": "Salala", "tipo": "pluviometrica", "var": "pr", "archivo": "4557001_pr.json", "lat": -30.6783, "lon": -71.53, "altitud_m": 100.0, "cuenca": "Rio Limari", "periodo": "1968-1977", "n_anios": 10, "nacional": true}, {"bna": "4524001", "nombre": "Monte Patria", "tipo": "pluviometrica", "var": "pr", "archivo": "4524001_pr.json", "lat": -30.6914, "lon": -70.9608, "altitud_m": 445.0, "cuenca": "Rio Limari", "periodo": "1970-1989", "n_anios": 20, "nacional": true}, {"bna": "4540006", "nombre": "Paloma Embalse", "tipo": "pluviometrica", "var": "pr", "archivo": "4540006_pr.json", "lat": -30.6958, "lon": -71.0361, "altitud_m": 320.0, "cuenca": "Rio Limari", "periodo": "1943-2017", "n_anios": 75, "nacional": true}, {"bna": "4523004", "nombre": "Puntilla San Juan", "tipo": "pluviometrica", "var": "pr", "archivo": "4523004_pr.json", "lat": -30.7025, "lon": -70.9178, "altitud_m": 430.0, "cuenca": "Rio Limari", "periodo": "1965-1978", "n_anios": 14, "nacional": true}, {"bna": "4523002", "nombre": "Rio Grande En Puntilla San Juan", "tipo": "pluviometrica", "var": "pr", "archivo": "4523002_pr.json", "lat": -30.7047, "lon": -70.9244, "altitud_m": 420.0, "cuenca": "Rio Limari", "periodo": "2017-2018", "n_anios": 2, "nacional": true}, {"bna": "4522003", "nombre": "Rapel", "tipo": "pluviometrica", "var": "pr", "archivo": "4522003_pr.json", "lat": -30.7211, "lon": -70.7753, "altitud_m": 870.0, "cuenca": "Rio Limari", "periodo": "1969-2017", "n_anios": 49, "nacional": true}, {"bna": "4520005", "nombre": "Los Molles Bocatoma", "tipo": "pluviometrica", "var": "pr", "archivo": "4520005_pr.json", "lat": -30.7439, "lon": -70.4175, "altitud_m": 2600.0, "cuenca": "Rio Limari", "periodo": "1984-1992", "n_anios": 9, "nacional": true}, {"bna": "4515004", "nombre": "El Maiten", "tipo": "pluviometrica", "var": "pr", "archivo": "4515004_pr.json", "lat": -30.8058, "lon": -70.5939, "altitud_m": 1350.0, "cuenca": "Rio Limari", "periodo": "1958-1974", "n_anios": 17, "nacional": true}, {"bna": "4537003", "nombre": "El Tome", "tipo": "pluviometrica", "var": "pr", "archivo": "4537003_pr.json", "lat": -30.8178, "lon": -70.9706, "altitud_m": 420.0, "cuenca": "Rio Limari", "periodo": "1966-2017", "n_anios": 52, "nacional": true}, {"bna": "4555001", "nombre": "Punitaqui", "tipo": "pluviometrica", "var": "pr", "archivo": "4555001_pr.json", "lat": -30.8278, "lon": -71.25, "altitud_m": 280.0, "cuenca": "Rio Limari", "periodo": "1961-2017", "n_anios": 57, "nacional": true}, {"bna": "4515005", "nombre": "Pedregal", "tipo": "pluviometrica", "var": "pr", "archivo": "4515005_pr.json", "lat": -30.8539, "lon": -70.7078, "altitud_m": 880.0, "cuenca": "Rio Limari", "periodo": "1967-1989", "n_anios": 23, "nacional": true}, {"bna": "4513004", "nombre": "Caren", "tipo": "pluviometrica", "var": "pr", "archivo": "4513004_pr.json", "lat": -30.8547, "lon": -70.7708, "altitud_m": 740.0, "cuenca": "Rio Limari", "periodo": "1943-2017", "n_anios": 75, "nacional": true}, {"bna": "4554003", "nombre": "La Placilla", "tipo": "pluviometrica", "var": "pr", "archivo": "4554003_pr.json", "lat": -30.8883, "lon": -71.3075, "altitud_m": 600.0, "cuenca": "Rio Limari", "periodo": "1989-2017", "n_anios": 29, "nacional": true}, {"bna": "4515007", "nombre": "Ramadilla", "tipo": "pluviometrica", "var": "pr", "archivo": "4515007_pr.json", "lat": -30.8933, "lon": -70.6511, "altitud_m": 1250.0, "cuenca": "Rio Limari", "periodo": "1937-1964", "n_anios": 28, "nacional": true}, {"bna": "4610001", "nombre": "Pea Blanca", "tipo": "pluviometrica", "var": "pr", "archivo": "4610001_pr.json", "lat": -30.9, "lon": -71.5503, "altitud_m": 360.0, "cuenca": "Costeras Entre R.Limari Y R.Choapa", "periodo": "1901-2017", "n_anios": 117, "nacional": true}, {"bna": "4513001", "nombre": "Rio Grande En Cuyano", "tipo": "pluviometrica", "var": "pr", "archivo": "4513001_pr.json", "lat": -30.9242, "lon": -70.7731, "altitud_m": 870.0, "cuenca": "Rio Limari", "periodo": "2017-2018", "n_anios": 2, "nacional": true}, {"bna": "4513003", "nombre": "Tulahuen", "tipo": "pluviometrica", "var": "pr", "archivo": "4513003_pr.json", "lat": -30.9669, "lon": -70.7639, "altitud_m": 1020.0, "cuenca": "Rio Limari", "periodo": "1949-2017", "n_anios": 69, "nacional": true}, {"bna": "4535001", "nombre": "Cogoti Embalse", "tipo": "pluviometrica", "var": "pr", "archivo": "4535001_pr.json", "lat": -31.0078, "lon": -71.0856, "altitud_m": 740.0, "cuenca": "Rio Limari", "periodo": "1936-2017", "n_anios": 82, "nacional": true}, {"bna": "4511002", "nombre": "Rio Grande En Las Ramadas", "tipo": "pluviometrica", "var": "pr", "archivo": "4511002_pr.json", "lat": -31.0117, "lon": -70.5811, "altitud_m": 1380.0, "cuenca": "Rio Limari", "periodo": "2011-2018", "n_anios": 8, "nacional": true}, {"bna": "4512002", "nombre": "Tascadero", "tipo": "pluviometrica", "var": "pr", "archivo": "4512002_pr.json", "lat": -31.0153, "lon": -70.6664, "altitud_m": 1230.0, "cuenca": "Rio Limari", "periodo": "1961-2017", "n_anios": 57, "nacional": true}, {"bna": "4511003", "nombre": "Las Ramadas", "tipo": "pluviometrica", "var": "pr", "archivo": "4511003_pr.json", "lat": -31.0181, "lon": -70.5858, "altitud_m": 1380.0, "cuenca": "Rio Limari", "periodo": "1943-2017", "n_anios": 75, "nacional": true}, {"bna": "4531002", "nombre": "Rio Cogoti Entrada Embalse Cogoti", "tipo": "pluviometrica", "var": "pr", "archivo": "4531002_pr.json", "lat": -31.0325, "lon": -71.0403, "altitud_m": 670.0, "cuenca": "Rio Limari", "periodo": "2014-2018", "n_anios": 5, "nacional": true}, {"bna": "4531003", "nombre": "Cogoti 18", "tipo": "pluviometrica", "var": "pr", "archivo": "4531003_pr.json", "lat": -31.0836, "lon": -70.95, "altitud_m": 840.0, "cuenca": "Rio Limari", "periodo": "1943-2017", "n_anios": 75, "nacional": true}, {"bna": "4530001", "nombre": "Rio Cogoti En Fraguita", "tipo": "pluviometrica", "var": "pr", "archivo": "4530001_pr.json", "lat": -31.1119, "lon": -70.885, "altitud_m": 1065.0, "cuenca": "Rio Limari", "periodo": "2014-2018", "n_anios": 5, "nacional": true}, {"bna": "4532006", "nombre": "Combarbala", "tipo": "pluviometrica", "var": "pr", "archivo": "4532006_pr.json", "lat": -31.1736, "lon": -71.0008, "altitud_m": 870.0, "cuenca": "Rio Limari", "periodo": "1977-2017", "n_anios": 41, "nacional": true}, {"bna": "4732001", "nombre": "La Canela Dmc", "tipo": "pluviometrica", "var": "pr", "archivo": "4732001_pr.json", "lat": -31.3986, "lon": -71.4569, "altitud_m": 290.0, "cuenca": "Rio Choapa", "periodo": "1973-2017", "n_anios": 45, "nacional": true}, {"bna": "4721001", "nombre": "Rio Illapel En Las Burras", "tipo": "pluviometrica", "var": "pr", "archivo": "4721001_pr.json", "lat": -31.5069, "lon": -70.8125, "altitud_m": 1079.0, "cuenca": "Rio Choapa", "periodo": "2014-2018", "n_anios": 5, "nacional": true}, {"bna": "4721002", "nombre": "Las Burras", "tipo": "pluviometrica", "var": "pr", "archivo": "4721002_pr.json", "lat": -31.5331, "lon": -70.8211, "altitud_m": 1150.0, "cuenca": "Rio Choapa", "periodo": "1989-2017", "n_anios": 29, "nacional": true}, {"bna": "4722001", "nombre": "Santa Virginia", "tipo": "pluviometrica", "var": "pr", "archivo": "4722001_pr.json", "lat": -31.5503, "lon": -70.8353, "altitud_m": 980.0, "cuenca": "Rio Choapa", "periodo": "1918-1989", "n_anios": 72, "nacional": true}, {"bna": "4723001", "nombre": "Rio Illapel En Huintil", "tipo": "pluviometrica", "var": "pr", "archivo": "4723001_pr.json", "lat": -31.5608, "lon": -70.9644, "altitud_m": 775.0, "cuenca": "Rio Choapa", "periodo": "2014-2018", "n_anios": 5, "nacional": true}, {"bna": "4723002", "nombre": "Huintil", "tipo": "pluviometrica", "var": "pr", "archivo": "4723002_pr.json", "lat": -31.5669, "lon": -70.9817, "altitud_m": 650.0, "cuenca": "Rio Choapa", "periodo": "1914-2017", "n_anios": 104, "nacional": true}, {"bna": "4730004", "nombre": "Mincha Norte", "tipo": "pluviometrica", "var": "pr", "archivo": "4730004_pr.json", "lat": -31.5875, "lon": -71.4453, "altitud_m": 50.0, "cuenca": "Rio Choapa", "periodo": "1974-2017", "n_anios": 44, "nacional": true}, {"bna": "4726004", "nombre": "Illapel Dos", "tipo": "pluviometrica", "var": "pr", "archivo": "4726004_pr.json", "lat": -31.645, "lon": -71.1908, "altitud_m": 290.0, "cuenca": "Rio Choapa", "periodo": "1971-1979", "n_anios": 9, "nacional": true}, {"bna": "4726003", "nombre": "Illapel Dga", "tipo": "pluviometrica", "var": "pr", "archivo": "4726003_pr.json", "lat": -31.645, "lon": -71.1908, "altitud_m": 290.0, "cuenca": "Rio Choapa", "periodo": "1974-2017", "n_anios": 44, "nacional": true}, {"bna": "4726001", "nombre": "Rio Illapel En El Peral", "tipo": "pluviometrica", "var": "pr", "archivo": "4726001_pr.json", "lat": -31.6647, "lon": -71.2547, "altitud_m": 0.0, "cuenca": "Rio Choapa", "periodo": "2012-2018", "n_anios": 7, "nacional": true}, {"bna": "4712001", "nombre": "Rio Chalinga En La Palmilla", "tipo": "pluviometrica", "var": "pr", "archivo": "4712001_pr.json", "lat": -31.6958, "lon": -70.7158, "altitud_m": 800.0, "cuenca": "Rio Choapa", "periodo": "2012-2018", "n_anios": 7, "nacional": true}, {"bna": "4713004", "nombre": "San Agustin", "tipo": "pluviometrica", "var": "pr", "archivo": "4713004_pr.json", "lat": -31.7289, "lon": -70.8317, "altitud_m": 1050.0, "cuenca": "Rio Choapa", "periodo": "1930-2017", "n_anios": 88, "nacional": true}, {"bna": "4716005", "nombre": "Limahuida", "tipo": "pluviometrica", "var": "pr", "archivo": "4716005_pr.json", "lat": -31.745, "lon": -71.1619, "altitud_m": 300.0, "cuenca": "Rio Choapa", "periodo": "1964-2017", "n_anios": 54, "nacional": true}, {"bna": "4715002", "nombre": "Mal Paso", "tipo": "pluviometrica", "var": "pr", "archivo": "4715002_pr.json", "lat": -31.7533, "lon": -71.1, "altitud_m": 375.0, "cuenca": "Rio Choapa", "periodo": "1960-1989", "n_anios": 30, "nacional": true}, {"bna": "4711004", "nombre": "Salamanca", "tipo": "pluviometrica", "var": "pr", "archivo": "4711004_pr.json", "lat": -31.7758, "lon": -70.9669, "altitud_m": 510.0, "cuenca": "Rio Choapa", "periodo": "1971-2017", "n_anios": 47, "nacional": true}, {"bna": "4711001", "nombre": "Rio Choapa En Salamanca", "tipo": "pluviometrica", "var": "pr", "archivo": "4711001_pr.json", "lat": -31.8117, "lon": -70.9303, "altitud_m": 500.0, "cuenca": "Rio Choapa", "periodo": "2012-2018", "n_anios": 7, "nacional": true}, {"bna": "4704001", "nombre": "Rio Cuncumen Antes Junta Choapa (Chacay)", "tipo": "pluviometrica", "var": "pr", "archivo": "4704001_pr.json", "lat": -31.8167, "lon": -70.6, "altitud_m": 1030.0, "cuenca": "Rio Choapa", "periodo": "2012-2018", "n_anios": 7, "nacional": true}, {"bna": "4710001", "nombre": "La Tranquilla", "tipo": "pluviometrica", "var": "pr", "archivo": "4710001_pr.json", "lat": -31.9, "lon": -70.6706, "altitud_m": 1000.0, "cuenca": "Rio Choapa", "periodo": "1966-2017", "n_anios": 52, "nacional": true}, {"bna": "4711003", "nombre": "Coiron", "tipo": "pluviometrica", "var": "pr", "archivo": "4711003_pr.json", "lat": -31.9019, "lon": -70.7708, "altitud_m": 840.0, "cuenca": "Rio Choapa", "periodo": "1974-2017", "n_anios": 44, "nacional": true}, {"bna": "4820001", "nombre": "Los Vilos Dmc", "tipo": "pluviometrica", "var": "pr", "archivo": "4820001_pr.json", "lat": -31.9103, "lon": -71.5086, "altitud_m": 10.0, "cuenca": "Costeras Entre R.Choapa Y R.Quilimari", "periodo": "1982-2017", "n_anios": 36, "nacional": true}, {"bna": "4810003", "nombre": "Caimanes", "tipo": "pluviometrica", "var": "pr", "archivo": "4810003_pr.json", "lat": -31.9322, "lon": -71.1361, "altitud_m": 450.0, "cuenca": "Costeras Entre R.Choapa Y R.Quilimari", "periodo": "1989-2017", "n_anios": 29, "nacional": true}, {"bna": "4703003", "nombre": "Cuncumen", "tipo": "pluviometrica", "var": "pr", "archivo": "4703003_pr.json", "lat": -31.9336, "lon": -70.6133, "altitud_m": 1100.0, "cuenca": "Rio Choapa", "periodo": "1958-2017", "n_anios": 60, "nacional": true}, {"bna": "4810001", "nombre": "Estero Pupio En El Romero", "tipo": "pluviometrica", "var": "pr", "archivo": "4810001_pr.json", "lat": -31.9481, "lon": -71.0747, "altitud_m": 570.0, "cuenca": "Costeras Entre R.Choapa Y R.Quilimari", "periodo": "2012-2018", "n_anios": 7, "nacional": true}, {"bna": "4703002", "nombre": "Rio Choapa En Cuncumen", "tipo": "pluviometrica", "var": "pr", "archivo": "4703002_pr.json", "lat": -31.9667, "lon": -70.5944, "altitud_m": 1200.0, "cuenca": "Rio Choapa", "periodo": "2001-2018", "n_anios": 18, "nacional": true}, {"bna": "4900004", "nombre": "El Naranjo", "tipo": "pluviometrica", "var": "pr", "archivo": "4900004_pr.json", "lat": -32.0314, "lon": -71.1522, "altitud_m": 720.0, "cuenca": "Rio Quilimari", "periodo": "1977-1989", "n_anios": 13, "nacional": true}, {"bna": "4901002", "nombre": "Infiernillo", "tipo": "pluviometrica", "var": "pr", "archivo": "4901002_pr.json", "lat": -32.0608, "lon": -71.3072, "altitud_m": 300.0, "cuenca": "Rio Quilimari", "periodo": "1977-1989", "n_anios": 13, "nacional": true}, {"bna": "4900002", "nombre": "Culimo Embalse", "tipo": "pluviometrica", "var": "pr", "archivo": "4900002_pr.json", "lat": -32.0675, "lon": -71.2225, "altitud_m": 380.0, "cuenca": "Rio Quilimari", "periodo": "1972-2017", "n_anios": 46, "nacional": true}, {"bna": "4902005", "nombre": "Quebrada Seca", "tipo": "pluviometrica", "var": "pr", "archivo": "4902005_pr.json", "lat": -32.0686, "lon": -71.4061, "altitud_m": 140.0, "cuenca": "Rio Quilimari", "periodo": "1976-1989", "n_anios": 14, "nacional": true}, {"bna": "5101005", "nombre": "Pedernal Hacienda", "tipo": "pluviometrica", "var": "pr", "archivo": "5101005_pr.json", "lat": -32.0836, "lon": -70.8, "altitud_m": 1100.0, "cuenca": "Rio Petorca", "periodo": "1962-2017", "n_anios": 56, "nacional": true}, {"bna": "4902002", "nombre": "Los Condores", "tipo": "pluviometrica", "var": "pr", "archivo": "4902002_pr.json", "lat": -32.1086, "lon": -71.3125, "altitud_m": 190.0, "cuenca": "Rio Quilimari", "periodo": "1977-2017", "n_anios": 41, "nacional": true}, {"bna": "4902003", "nombre": "Quilimari", "tipo": "pluviometrica", "var": "pr", "archivo": "4902003_pr.json", "lat": -32.1175, "lon": -71.5, "altitud_m": 25.0, "cuenca": "Rio Quilimari", "periodo": "1979-2017", "n_anios": 39, "nacional": true}, {"bna": "4900003", "nombre": "Quelon", "tipo": "pluviometrica", "var": "pr", "archivo": "4900003_pr.json", "lat": -32.1444, "lon": -71.1628, "altitud_m": 890.0, "cuenca": "Rio Quilimari", "periodo": "1972-2017", "n_anios": 46, "nacional": true}, {"bna": "5111002", "nombre": "Frutillar Alto", "tipo": "pluviometrica", "var": "pr", "archivo": "5111002_pr.json", "lat": -32.1567, "lon": -71.03, "altitud_m": 780.0, "cuenca": "Rio Petorca", "periodo": "1972-2017", "n_anios": 46, "nacional": true}, {"bna": "4902004", "nombre": "Quebrada El Manzano", "tipo": "pluviometrica", "var": "pr", "archivo": "4902004_pr.json", "lat": -32.1728, "lon": -71.3722, "altitud_m": 300.0, "cuenca": "Rio Quilimari", "periodo": "1977-1989", "n_anios": 13, "nacional": true}, {"bna": "5101006", "nombre": "Chalaco", "tipo": "pluviometrica", "var": "pr", "archivo": "5101006_pr.json", "lat": -32.1836, "lon": -70.7833, "altitud_m": 880.0, "cuenca": "Rio Petorca", "periodo": "1962-2017", "n_anios": 56, "nacional": true}, {"bna": "5100003", "nombre": "Nacimiento Del Sobrante", "tipo": "pluviometrica", "var": "pr", "archivo": "5100003_pr.json", "lat": -32.1883, "lon": -70.4831, "altitud_m": 3380.0, "cuenca": "Rio Petorca", "periodo": "1987-1987", "n_anios": 1, "nacional": true}, {"bna": "5100007", "nombre": "Chincolco", "tipo": "pluviometrica", "var": "pr", "archivo": "5100007_pr.json", "lat": -32.215, "lon": -70.8394, "altitud_m": 650.0, "cuenca": "Rio Petorca", "periodo": "1958-1978", "n_anios": 21, "nacional": true}, {"bna": "5000001", "nombre": "Quebrada El Manzano", "tipo": "pluviometrica", "var": "pr", "archivo": "5000001_pr.json", "lat": -32.22, "lon": -71.4017, "altitud_m": 380.0, "cuenca": "Costeras Quilimari-Petorca", "periodo": "1977-1984", "n_anios": 8, "nacional": true}, {"bna": "5100001", "nombre": "Rio Sobrante En Piadero", "tipo": "pluviometrica", "var": "pr", "archivo": "5100001_pr.json", "lat": -32.2253, "lon": -70.7119, "altitud_m": 1300.0, "cuenca": "Rio Petorca", "periodo": "2012-2018", "n_anios": 7, "nacional": true}, {"bna": "5100004", "nombre": "Hacienda El Rancho", "tipo": "pluviometrica", "var": "pr", "archivo": "5100004_pr.json", "lat": -32.2256, "lon": -70.6044, "altitud_m": 2000.0, "cuenca": "Rio Petorca", "periodo": "1962-1975", "n_anios": 14, "nacional": true}, {"bna": "5100006", "nombre": "El Sobrante Hacienda", "tipo": "pluviometrica", "var": "pr", "archivo": "5100006_pr.json", "lat": -32.2261, "lon": -70.7839, "altitud_m": 810.0, "cuenca": "Rio Petorca", "periodo": "1944-2017", "n_anios": 74, "nacional": true}, {"bna": "5100005", "nombre": "El Trapiche", "tipo": "pluviometrica", "var": "pr", "archivo": "5100005_pr.json", "lat": -32.2286, "lon": -70.71, "altitud_m": 1180.0, "cuenca": "Rio Petorca", "periodo": "1901-2017", "n_anios": 117, "nacional": true}, {"bna": "5111001", "nombre": "Palquico", "tipo": "pluviometrica", "var": "pr", "archivo": "5111001_pr.json", "lat": -32.2528, "lon": -71.1386, "altitud_m": 450.0, "cuenca": "Rio Petorca", "periodo": "1903-2017", "n_anios": 115, "nacional": true}, {"bna": "5110003", "nombre": "Hierro Viejo", "tipo": "pluviometrica", "var": "pr", "archivo": "5110003_pr.json", "lat": -32.2756, "lon": -70.9997, "altitud_m": 440.0, "cuenca": "Rio Petorca", "periodo": "1978-2017", "n_anios": 40, "nacional": true}, {"bna": "5110002", "nombre": "Rio Petorca En Peon O Hierro Viejo", "tipo": "pluviometrica", "var": "pr", "archivo": "5110002_pr.json", "lat": -32.2786, "lon": -70.9889, "altitud_m": 450.0, "cuenca": "Rio Petorca", "periodo": "2003-2017", "n_anios": 15, "nacional": true}, {"bna": "5200005", "nombre": "La Chupalla", "tipo": "pluviometrica", "var": "pr", "archivo": "5200005_pr.json", "lat": -32.3006, "lon": -70.6414, "altitud_m": 1300.0, "cuenca": "Rio Ligua", "periodo": "1962-1975", "n_anios": 14, "nacional": true}, {"bna": "5111004", "nombre": "El Salvador", "tipo": "pluviometrica", "var": "pr", "archivo": "5111004_pr.json", "lat": -32.3058, "lon": -71.0792, "altitud_m": 340.0, "cuenca": "Rio Petorca", "periodo": "1972-2017", "n_anios": 46, "nacional": true}, {"bna": "5120004", "nombre": "Las Colmenas", "tipo": "pluviometrica", "var": "pr", "archivo": "5120004_pr.json", "lat": -32.3075, "lon": -71.2425, "altitud_m": 80.0, "cuenca": "Rio Petorca", "periodo": "1903-2017", "n_anios": 115, "nacional": true}, {"bna": "5120005", "nombre": "Santa Marta", "tipo": "pluviometrica", "var": "pr", "archivo": "5120005_pr.json", "lat": -32.3181, "lon": -71.2597, "altitud_m": 100.0, "cuenca": "Rio Petorca", "periodo": "1975-1978", "n_anios": 4, "nacional": true}, {"bna": "5200001", "nombre": "Rio Alicahue En Colliguay", "tipo": "pluviometrica", "var": "pr", "archivo": "5200001_pr.json", "lat": -32.33, "lon": -70.7381, "altitud_m": 780.0, "cuenca": "Rio Ligua", "periodo": "2003-2018", "n_anios": 16, "nacional": true}, {"bna": "5200006", "nombre": "Alicahue", "tipo": "pluviometrica", "var": "pr", "archivo": "5200006_pr.json", "lat": -32.3408, "lon": -70.7528, "altitud_m": 750.0, "cuenca": "Rio Ligua", "periodo": "1962-2017", "n_anios": 56, "nacional": true}, {"bna": "5120003", "nombre": "Artificio", "tipo": "pluviometrica", "var": "pr", "archivo": "5120003_pr.json", "lat": -32.3914, "lon": -71.0931, "altitud_m": 250.0, "cuenca": "Rio Petorca", "periodo": "1972-2017", "n_anios": 46, "nacional": true}, {"bna": "5120006", "nombre": "Longotoma", "tipo": "pluviometrica", "var": "pr", "archivo": "5120006_pr.json", "lat": -32.3919, "lon": -71.375, "altitud_m": 20.0, "cuenca": "Rio Petorca", "periodo": "1979-2017", "n_anios": 39, "nacional": true}, {"bna": "5200007", "nombre": "La Mostaza", "tipo": "pluviometrica", "var": "pr", "archivo": "5200007_pr.json", "lat": -32.4186, "lon": -70.6808, "altitud_m": 1200.0, "cuenca": "Rio Ligua", "periodo": "1903-2017", "n_anios": 115, "nacional": true}, {"bna": "5210002", "nombre": "La Via", "tipo": "pluviometrica", "var": "pr", "archivo": "5210002_pr.json", "lat": -32.4261, "lon": -70.9167, "altitud_m": 370.0, "cuenca": "Rio Ligua", "periodo": "1979-2017", "n_anios": 39, "nacional": true}, {"bna": "5220006", "nombre": "Chacrilla", "tipo": "pluviometrica", "var": "pr", "archivo": "5220006_pr.json", "lat": -32.4267, "lon": -71.0606, "altitud_m": 290.0, "cuenca": "Rio Ligua", "periodo": "1979-2017", "n_anios": 39, "nacional": true}, {"bna": "5221005", "nombre": "Valle Hermoso", "tipo": "pluviometrica", "var": "pr", "archivo": "5221005_pr.json", "lat": -32.4372, "lon": -71.2067, "altitud_m": 80.0, "cuenca": "Rio Ligua", "periodo": "1976-2017", "n_anios": 42, "nacional": true}, {"bna": "5221006", "nombre": "Los Cardos", "tipo": "pluviometrica", "var": "pr", "archivo": "5221006_pr.json", "lat": -32.4453, "lon": -71.2264, "altitud_m": 60.0, "cuenca": "Rio Ligua", "periodo": "1971-1975", "n_anios": 5, "nacional": true}, {"bna": "5211004", "nombre": "Las Puertas", "tipo": "pluviometrica", "var": "pr", "archivo": "5211004_pr.json", "lat": -32.4856, "lon": -70.9319, "altitud_m": 350.0, "cuenca": "Rio Ligua", "periodo": "1979-2017", "n_anios": 39, "nacional": true}, {"bna": "5414004", "nombre": "Resguardo Los Patos", "tipo": "pluviometrica", "var": "pr", "archivo": "5414004_pr.json", "lat": -32.4989, "lon": -70.5789, "altitud_m": 1220.0, "cuenca": "Rio Aconcagua", "periodo": "1940-2017", "n_anios": 78, "nacional": true}, {"bna": "5414001", "nombre": "Rio Putaendo En Resguardo Los Patos", "tipo": "pluviometrica", "var": "pr", "archivo": "5414001_pr.json", "lat": -32.5017, "lon": -70.5811, "altitud_m": 1218.0, "cuenca": "Rio Aconcagua", "periodo": "2001-2018", "n_anios": 18, "nacional": true}, {"bna": "5220007", "nombre": "Las Pataguas", "tipo": "pluviometrica", "var": "pr", "archivo": "5220007_pr.json", "lat": -32.5333, "lon": -71.1294, "altitud_m": 350.0, "cuenca": "Rio Ligua", "periodo": "1903-2017", "n_anios": 115, "nacional": true}, {"bna": "5414005", "nombre": "El Tartaro", "tipo": "pluviometrica", "var": "pr", "archivo": "5414005_pr.json", "lat": -32.5669, "lon": -70.7, "altitud_m": 950.0, "cuenca": "Rio Aconcagua", "periodo": "1990-2017", "n_anios": 28, "nacional": true}, {"bna": "5211003", "nombre": "Mina Cerro Negro", "tipo": "pluviometrica", "var": "pr", "archivo": "5211003_pr.json", "lat": -32.5864, "lon": -70.8694, "altitud_m": 650.0, "cuenca": "Rio Ligua", "periodo": "1979-2017", "n_anios": 39, "nacional": true}, {"bna": "5310001", "nombre": "Laguna De Zapallar", "tipo": "pluviometrica", "var": "pr", "archivo": "5310001_pr.json", "lat": -32.5919, "lon": -71.4322, "altitud_m": 50.0, "cuenca": "Costeras Ligua-Aconcagua", "periodo": "1903-2017", "n_anios": 115, "nacional": true}, {"bna": "5424005", "nombre": "El Cobre", "tipo": "pluviometrica", "var": "pr", "archivo": "5424005_pr.json", "lat": -32.6531, "lon": -71.1964, "altitud_m": 280.0, "cuenca": "Rio Aconcagua", "periodo": "1989-2017", "n_anios": 29, "nacional": true}, {"bna": "5415004", "nombre": "Jahuel", "tipo": "pluviometrica", "var": "pr", "archivo": "5415004_pr.json", "lat": -32.6836, "lon": -70.6, "altitud_m": 1020.0, "cuenca": "Rio Aconcagua", "periodo": "1989-2017", "n_anios": 29, "nacional": true}, {"bna": "5421005", "nombre": "Catemu", "tipo": "pluviometrica", "var": "pr", "archivo": "5421005_pr.json", "lat": -32.7344, "lon": -70.9342, "altitud_m": 440.0, "cuenca": "Rio Aconcagua", "periodo": "1903-2017", "n_anios": 115, "nacional": true}, {"bna": "5410008", "nombre": "San Felipe", "tipo": "pluviometrica", "var": "pr", "archivo": "5410008_pr.json", "lat": -32.7472, "lon": -70.7247, "altitud_m": 640.0, "cuenca": "Rio Aconcagua", "periodo": "1962-2017", "n_anios": 56, "nacional": true}, {"bna": "5410005", "nombre": "Rio Aconcagua En San Felipe", "tipo": "pluviometrica", "var": "pr", "archivo": "5410005_pr.json", "lat": -32.7572, "lon": -70.7367, "altitud_m": 650.0, "cuenca": "Rio Aconcagua", "periodo": "1999-2018", "n_anios": 20, "nacional": true}, {"bna": "5320001", "nombre": "Estero Quintero En Valle Alegre", "tipo": "pluviometrica", "var": "pr", "archivo": "5320001_pr.json", "lat": -32.7936, "lon": -71.4161, "altitud_m": 40.0, "cuenca": "Costeras Ligua-Aconcagua", "periodo": "2009-2017", "n_anios": 9, "nacional": true}, {"bna": "5425003", "nombre": "Lo Rojas", "tipo": "pluviometrica", "var": "pr", "archivo": "5425003_pr.json", "lat": -32.8119, "lon": -71.2653, "altitud_m": 190.0, "cuenca": "Rio Aconcagua", "periodo": "1963-2017", "n_anios": 55, "nacional": true}, {"bna": "5410007", "nombre": "Los Andes", "tipo": "pluviometrica", "var": "pr", "archivo": "5410007_pr.json", "lat": -32.8336, "lon": -70.6, "altitud_m": 820.0, "cuenca": "Rio Aconcagua", "periodo": "1971-2017", "n_anios": 47, "nacional": true}, {"bna": "5404001", "nombre": "Canal Colorado En Bocatoma", "tipo": "pluviometrica", "var": "pr", "archivo": "5404001_pr.json", "lat": -32.8347, "lon": -70.3533, "altitud_m": 1391.0, "cuenca": "Rio Aconcagua", "periodo": "2014-2018", "n_anios": 5, "nacional": true}, {"bna": "5423003", "nombre": "Rio Aconcagua En Romeral", "tipo": "pluviometrica", "var": "pr", "archivo": "5423003_pr.json", "lat": -32.8403, "lon": -71.0256, "altitud_m": 365.0, "cuenca": "Rio Aconcagua", "periodo": "2002-2018", "n_anios": 17, "nacional": true}, {"bna": "5410002", "nombre": "Rio Aconcagua En Chacabuquito", "tipo": "pluviometrica", "var": "pr", "archivo": "5410002_pr.json", "lat": -32.8503, "lon": -70.5094, "altitud_m": 950.0, "cuenca": "Rio Aconcagua", "periodo": "1999-2018", "n_anios": 20, "nacional": true}, {"bna": "5423013", "nombre": "Estero Rabuco", "tipo": "pluviometrica", "var": "pr", "archivo": "5423013_pr.json", "lat": -32.8506, "lon": -71.1167, "altitud_m": 300.0, "cuenca": "Rio Aconcagua", "periodo": "1965-2017", "n_anios": 53, "nacional": true}, {"bna": "5410006", "nombre": "Vilcuya", "tipo": "pluviometrica", "var": "pr", "archivo": "5410006_pr.json", "lat": -32.8603, "lon": -70.4719, "altitud_m": 1100.0, "cuenca": "Rio Aconcagua", "periodo": "1964-2017", "n_anios": 54, "nacional": true}, {"bna": "5401003", "nombre": "Rio Juncal En Juncal", "tipo": "pluviometrica", "var": "pr", "archivo": "5401003_pr.json", "lat": -32.8625, "lon": -70.1675, "altitud_m": 1800.0, "cuenca": "Rio Aconcagua", "periodo": "2014-2018", "n_anios": 5, "nacional": true}, {"bna": "5426004", "nombre": "Quillota", "tipo": "pluviometrica", "var": "pr", "archivo": "5426004_pr.json", "lat": -32.8958, "lon": -71.2092, "altitud_m": 130.0, "cuenca": "Rio Aconcagua", "periodo": "1977-2017", "n_anios": 41, "nacional": true}, {"bna": "5403002", "nombre": "Rio Aconcagua En Rio Blanco", "tipo": "pluviometrica", "var": "pr", "archivo": "5403002_pr.json", "lat": -32.9067, "lon": -70.3036, "altitud_m": 1420.0, "cuenca": "Rio Aconcagua", "periodo": "2014-2018", "n_anios": 5, "nacional": true}, {"bna": "5411001", "nombre": "Estero Pocuro En El Sifon", "tipo": "pluviometrica", "var": "pr", "archivo": "5411001_pr.json", "lat": -32.9164, "lon": -70.5403, "altitud_m": 1000.0, "cuenca": "Rio Aconcagua", "periodo": "2017-2017", "n_anios": 1, "nacional": true}, {"bna": "5403006", "nombre": "Riecillos", "tipo": "pluviometrica", "var": "pr", "archivo": "5403006_pr.json", "lat": -32.9228, "lon": -70.3553, "altitud_m": 1290.0, "cuenca": "Rio Aconcagua", "periodo": "1929-2017", "n_anios": 89, "nacional": true}, {"bna": "5422002", "nombre": "Las Chilcas", "tipo": "pluviometrica", "var": "pr", "archivo": "5422002_pr.json", "lat": -32.9319, "lon": -70.8178, "altitud_m": 850.0, "cuenca": "Rio Aconcagua", "periodo": "1990-2017", "n_anios": 28, "nacional": true}, {"bna": "5733010", "nombre": "Fundo Las Bateas", "tipo": "pluviometrica", "var": "pr", "archivo": "5733010_pr.json", "lat": -32.9472, "lon": -70.8064, "altitud_m": 810.0, "cuenca": "Rio Maipo", "periodo": "1985-2017", "n_anios": 33, "nacional": true}, {"bna": "5733006", "nombre": "Rincon De Los Valles", "tipo": "pluviometrica", "var": "pr", "archivo": "5733006_pr.json", "lat": -32.9475, "lon": -70.7536, "altitud_m": 955.0, "cuenca": "Rio Maipo", "periodo": "1957-2017", "n_anios": 61, "nacional": true}, {"bna": "5427007", "nombre": "Los Aromos", "tipo": "pluviometrica", "var": "pr", "archivo": "5427007_pr.json", "lat": -32.9578, "lon": -71.345, "altitud_m": 100.0, "cuenca": "Rio Aconcagua", "periodo": "1974-2017", "n_anios": 44, "nacional": true}, {"bna": "5500003", "nombre": "Las Salinas", "tipo": "pluviometrica", "var": "pr", "archivo": "5500003_pr.json", "lat": -33.0019, "lon": -71.5467, "altitud_m": 20.0, "cuenca": "Costeras Entre Aconcagua Y Maipo", "periodo": "2013-2018", "n_anios": 6, "nacional": true}, {"bna": "5733007", "nombre": "Caleu", "tipo": "pluviometrica", "var": "pr", "archivo": "5733007_pr.json", "lat": -33.0053, "lon": -70.9933, "altitud_m": 1120.0, "cuenca": "Rio Maipo", "periodo": "1957-2016", "n_anios": 60, "nacional": true}, {"bna": "5733008", "nombre": "Rungue Embalse", "tipo": "pluviometrica", "var": "pr", "archivo": "5733008_pr.json", "lat": -33.0194, "lon": -70.9081, "altitud_m": 700.0, "cuenca": "Rio Maipo", "periodo": "1943-2016", "n_anios": 74, "nacional": true}, {"bna": "5510001", "nombre": "Rodelillo", "tipo": "pluviometrica", "var": "pr", "archivo": "5510001_pr.json", "lat": -33.0503, "lon": -71.5833, "altitud_m": 110.0, "cuenca": "Costeras Entre Aconcagua Y Maipo", "periodo": "1971-2018", "n_anios": 48, "nacional": true}, {"bna": "5427008", "nombre": "Quebrada Alvarado", "tipo": "pluviometrica", "var": "pr", "archivo": "5427008_pr.json", "lat": -33.0506, "lon": -71.1, "altitud_m": 290.0, "cuenca": "Rio Aconcagua", "periodo": "1990-2017", "n_anios": 28, "nacional": true}, {"bna": "5732002", "nombre": "Huechun Andina", "tipo": "pluviometrica", "var": "pr", "archivo": "5732002_pr.json", "lat": -33.0758, "lon": -70.7686, "altitud_m": 590.0, "cuenca": "Rio Maipo", "periodo": "1994-2017", "n_anios": 24, "nacional": true}, {"bna": "5510005", "nombre": "Cerro Colorado Armada De Chile", "tipo": "pluviometrica", "var": "pr", "archivo": "5510005_pr.json", "lat": -33.0819, "lon": -71.6169, "altitud_m": 510.0, "cuenca": "Costeras Entre Aconcagua Y Maipo", "periodo": "2014-2018", "n_anios": 5, "nacional": true}, {"bna": "5732001", "nombre": "Huechun Embalse", "tipo": "pluviometrica", "var": "pr", "archivo": "5732001_pr.json", "lat": -33.0856, "lon": -70.8017, "altitud_m": 556.0, "cuenca": "Rio Maipo", "periodo": "1988-2017", "n_anios": 30, "nacional": true}, {"bna": "5733009", "nombre": "Til-Til", "tipo": "pluviometrica", "var": "pr", "archivo": "5733009_pr.json", "lat": -33.0869, "lon": -70.9278, "altitud_m": 580.0, "cuenca": "Rio Maipo", "periodo": "1943-1972", "n_anios": 30, "nacional": true}, {"bna": "5427006", "nombre": "Lliu-Lliu Embalse", "tipo": "pluviometrica", "var": "pr", "archivo": "5427006_pr.json", "lat": -33.0986, "lon": -71.2144, "altitud_m": 260.0, "cuenca": "Rio Aconcagua", "periodo": "1978-2017", "n_anios": 40, "nacional": true}, {"bna": "5510002", "nombre": "Lago Peuelas", "tipo": "pluviometrica", "var": "pr", "archivo": "5510002_pr.json", "lat": -33.145, "lon": -71.5553, "altitud_m": 360.0, "cuenca": "Costeras Entre Aconcagua Y Maipo", "periodo": "1974-2017", "n_anios": 44, "nacional": true}, {"bna": "5500001", "nombre": "Las Piedras", "tipo": "pluviometrica", "var": "pr", "archivo": "5500001_pr.json", "lat": -33.1542, "lon": -71.3428, "altitud_m": 225.0, "cuenca": "Costeras Entre Aconcagua Y Maipo", "periodo": "1991-2017", "n_anios": 27, "nacional": true}, {"bna": "5741002", "nombre": "Colliguay", "tipo": "pluviometrica", "var": "pr", "archivo": "5741002_pr.json", "lat": -33.1686, "lon": -71.1467, "altitud_m": 490.0, "cuenca": "Rio Maipo", "periodo": "1950-2017", "n_anios": 68, "nacional": true}, {"bna": "5706003", "nombre": "Valle Olivares", "tipo": "pluviometrica", "var": "pr", "archivo": "5706003_pr.json", "lat": -33.1869, "lon": -70.1122, "altitud_m": 2787.0, "cuenca": "Rio Maipo", "periodo": "2014-2018", "n_anios": 5, "nacional": true}, {"bna": "5721017", "nombre": "Estero Yerba Loca En Piedra Carvajal", "tipo": "pluviometrica", "var": "pr", "archivo": "5721017_pr.json", "lat": -33.2214, "lon": -70.2736, "altitud_m": 3250.0, "cuenca": "Rio Maipo", "periodo": "2013-2018", "n_anios": 6, "nacional": true}, {"bna": "5520002", "nombre": "Tapihue", "tipo": "pluviometrica", "var": "pr", "archivo": "5520002_pr.json", "lat": -33.2897, "lon": -71.2914, "altitud_m": 310.0, "cuenca": "Costeras Entre Aconcagua Y Maipo", "periodo": "1989-2017", "n_anios": 29, "nacional": true}, {"bna": "5721016", "nombre": "Rio San Francisco Antes Junta Estero Yerba Loca", "tipo": "pluviometrica", "var": "pr", "archivo": "5721016_pr.json", "lat": -33.3086, "lon": -70.3572, "altitud_m": 1550.0, "cuenca": "Rio Maipo", "periodo": "2013-2018", "n_anios": 6, "nacional": true}, {"bna": "5722001", "nombre": "Estero Arrayan En La Montosa", "tipo": "pluviometrica", "var": "pr", "archivo": "5722001_pr.json", "lat": -33.3256, "lon": -70.4561, "altitud_m": 880.0, "cuenca": "Rio Maipo", "periodo": "2013-2018", "n_anios": 6, "nacional": true}, {"bna": "5520001", "nombre": "Casablanca", "tipo": "pluviometrica", "var": "pr", "archivo": "5520001_pr.json", "lat": -33.3278, "lon": -71.4131, "altitud_m": 290.0, "cuenca": "Costeras Entre Aconcagua Y Maipo", "periodo": "1986-2017", "n_anios": 32, "nacional": true}, {"bna": "5723001", "nombre": "La Dehesa", "tipo": "pluviometrica", "var": "pr", "archivo": "5723001_pr.json", "lat": -33.3292, "lon": -70.5286, "altitud_m": 920.0, "cuenca": "Rio Maipo", "periodo": "1991-2007", "n_anios": 17, "nacional": true}, {"bna": "5721001", "nombre": "Estero Yerba Loca Antes Junta San Francisco", "tipo": "pluviometrica", "var": "pr", "archivo": "5721001_pr.json", "lat": -33.3414, "lon": -70.3636, "altitud_m": 1350.0, "cuenca": "Rio Maipo", "periodo": "2009-2018", "n_anios": 10, "nacional": true}, {"bna": "5720003", "nombre": "La Ermita Central En Bocatoma", "tipo": "pluviometrica", "var": "pr", "archivo": "5720003_pr.json", "lat": -33.3414, "lon": -70.3636, "altitud_m": 1350.0, "cuenca": "Rio Maipo", "periodo": "1987-2011", "n_anios": 25, "nacional": true}, {"bna": "5722002", "nombre": "Rio Mapocho En Los Almendros", "tipo": "pluviometrica", "var": "pr", "archivo": "5722002_pr.json", "lat": -33.3703, "lon": -70.4508, "altitud_m": 966.0, "cuenca": "Rio Maipo", "periodo": "1999-2017", "n_anios": 19, "nacional": true}, {"bna": "5720001", "nombre": "Rio Molina Antes Junta San Francisco", "tipo": "pluviometrica", "var": "pr", "archivo": "5720001_pr.json", "lat": -33.3733, "lon": -70.3961, "altitud_m": 1158.0, "cuenca": "Rio Maipo", "periodo": "2009-2018", "n_anios": 10, "nacional": true}, {"bna": "5730012", "nombre": "Cerro Calan", "tipo": "pluviometrica", "var": "pr", "archivo": "5730012_pr.json", "lat": -33.395, "lon": -70.5367, "altitud_m": 848.0, "cuenca": "Rio Maipo", "periodo": "1975-2018", "n_anios": 44, "nacional": true}, {"bna": "5730014", "nombre": "Quebrada Ramon", "tipo": "pluviometrica", "var": "pr", "archivo": "5730014_pr.json", "lat": -33.4328, "lon": -70.5344, "altitud_m": 730.0, "cuenca": "Rio Maipo", "periodo": "1980-2008", "n_anios": 29, "nacional": true}, {"bna": "5730008", "nombre": "Quebrada Ramon En Recinto Emos", "tipo": "pluviometrica", "var": "pr", "archivo": "5730008_pr.json", "lat": -33.4331, "lon": -70.5142, "altitud_m": 845.0, "cuenca": "Rio Maipo", "periodo": "2007-2017", "n_anios": 11, "nacional": true}, {"bna": "5744002", "nombre": "Los Panguiles", "tipo": "pluviometrica", "var": "pr", "archivo": "5744002_pr.json", "lat": -33.4386, "lon": -71.0256, "altitud_m": 190.0, "cuenca": "Rio Maipo", "periodo": "1981-2017", "n_anios": 37, "nacional": true}, {"bna": "5530005", "nombre": "Algarrobo", "tipo": "pluviometrica", "var": "pr", "archivo": "5530005_pr.json", "lat": -33.4389, "lon": -71.6239, "altitud_m": 130.0, "cuenca": "Costeras Entre Aconcagua Y Maipo", "periodo": "2012-2016", "n_anios": 5, "nacional": true}, {"bna": "5530003", "nombre": "Lagunillas", "tipo": "pluviometrica", "var": "pr", "archivo": "5530003_pr.json", "lat": -33.4394, "lon": -71.4506, "altitud_m": 200.0, "cuenca": "Costeras Entre Aconcagua Y Maipo", "periodo": "1986-2017", "n_anios": 32, "nacional": true}, {"bna": "5730016", "nombre": "Terraza Oficinas Centrales Dga", "tipo": "pluviometrica", "var": "pr", "archivo": "5730016_pr.json", "lat": -33.4486, "lon": -70.6444, "altitud_m": 560.0, "cuenca": "Rio Maipo", "periodo": "1960-2018", "n_anios": 59, "nacional": true}, {"bna": "5744003", "nombre": "Ibacache Alto", "tipo": "pluviometrica", "var": "pr", "archivo": "5744003_pr.json", "lat": -33.4797, "lon": -71.2811, "altitud_m": 169.0, "cuenca": "Rio Maipo", "periodo": "1988-2017", "n_anios": 30, "nacional": true}, {"bna": "5706001", "nombre": "Rio Olivares Antes Junta Rio Colorado", "tipo": "pluviometrica", "var": "pr", "archivo": "5706001_pr.json", "lat": -33.4878, "lon": -70.1367, "altitud_m": 1500.0, "cuenca": "Rio Maipo", "periodo": "2014-2018", "n_anios": 5, "nacional": true}, {"bna": "5705001", "nombre": "Rio Colorado Antes Junta Rio Olivares", "tipo": "pluviometrica", "var": "pr", "archivo": "5705001_pr.json", "lat": -33.49, "lon": -70.1342, "altitud_m": 1500.0, "cuenca": "Rio Maipo", "periodo": "2013-2018", "n_anios": 6, "nacional": true}, {"bna": "5737002", "nombre": "Rio Mapocho Rinconada De Maipu", "tipo": "pluviometrica", "var": "pr", "archivo": "5737002_pr.json", "lat": -33.4961, "lon": -70.8167, "altitud_m": 440.0, "cuenca": "Rio Maipo", "periodo": "2001-2017", "n_anios": 17, "nacional": true}, {"bna": "5730013", "nombre": "Antupiren", "tipo": "pluviometrica", "var": "pr", "archivo": "5730013_pr.json", "lat": -33.4964, "lon": -70.5164, "altitud_m": 904.0, "cuenca": "Rio Maipo", "periodo": "1979-2017", "n_anios": 39, "nacional": true}, {"bna": "5730015", "nombre": "Campus San Joaquin U.C.", "tipo": "pluviometrica", "var": "pr", "archivo": "5730015_pr.json", "lat": -33.4975, "lon": -70.6142, "altitud_m": 570.0, "cuenca": "Rio Maipo", "periodo": "1977-1983", "n_anios": 7, "nacional": true}, {"bna": "5730039", "nombre": "Quebrada De Macul", "tipo": "pluviometrica", "var": "pr", "archivo": "5730039_pr.json", "lat": -33.5017, "lon": -70.5144, "altitud_m": 950.0, "cuenca": "Rio Maipo", "periodo": "2003-2018", "n_anios": 16, "nacional": true}, {"bna": "5707003", "nombre": "Maitenes Bocatoma", "tipo": "pluviometrica", "var": "pr", "archivo": "5707003_pr.json", "lat": -33.5311, "lon": -70.2617, "altitud_m": 1143.0, "cuenca": "Rio Maipo", "periodo": "1988-2017", "n_anios": 30, "nacional": true}, {"bna": "5737008", "nombre": "Fundo Marruecos", "tipo": "pluviometrica", "var": "pr", "archivo": "5737008_pr.json", "lat": -33.5503, "lon": -70.8167, "altitud_m": 430.0, "cuenca": "Rio Maipo", "periodo": "1989-2017", "n_anios": 29, "nacional": true}, {"bna": "5745001", "nombre": "Mallarauco", "tipo": "pluviometrica", "var": "pr", "archivo": "5745001_pr.json", "lat": -33.5697, "lon": -71.1061, "altitud_m": 176.0, "cuenca": "Rio Maipo", "periodo": "1992-2017", "n_anios": 26, "nacional": true}, {"bna": "5530002", "nombre": "San Antonio (Pta. Panul)", "tipo": "pluviometrica", "var": "pr", "archivo": "5530002_pr.json", "lat": -33.5747, "lon": -71.625, "altitud_m": 80.0, "cuenca": "Costeras Entre Aconcagua Y Maipo", "periodo": "1971-2017", "n_anios": 47, "nacional": true}, {"bna": "5710007", "nombre": "La Obra Recinto Emos", "tipo": "pluviometrica", "var": "pr", "archivo": "5710007_pr.json", "lat": -33.5914, "lon": -70.4853, "altitud_m": 796.0, "cuenca": "Rio Maipo", "periodo": "1995-2017", "n_anios": 23, "nacional": true}, {"bna": "5710001", "nombre": "Rio Maipo En El Manzano", "tipo": "pluviometrica", "var": "pr", "archivo": "5710001_pr.json", "lat": -33.5939, "lon": -70.3792, "altitud_m": 850.0, "cuenca": "Rio Maipo", "periodo": "2010-2018", "n_anios": 9, "nacional": true}, {"bna": "5737006", "nombre": "Peaflor", "tipo": "pluviometrica", "var": "pr", "archivo": "5737006_pr.json", "lat": -33.6097, "lon": -70.9, "altitud_m": 370.0, "cuenca": "Rio Maipo", "periodo": "1971-1979", "n_anios": 9, "nacional": true}, {"bna": "5748003", "nombre": "Cerrillos De Leyda", "tipo": "pluviometrica", "var": "pr", "archivo": "5748003_pr.json", "lat": -33.6344, "lon": -71.5106, "altitud_m": 182.0, "cuenca": "Rio Maipo", "periodo": "1932-2017", "n_anios": 86, "nacional": true}, {"bna": "5704006", "nombre": "San Jose De Maipo Reten", "tipo": "pluviometrica", "var": "pr", "archivo": "5704006_pr.json", "lat": -33.6361, "lon": -70.3531, "altitud_m": 943.0, "cuenca": "Rio Maipo", "periodo": "1971-2017", "n_anios": 47, "nacional": true}, {"bna": "5746001", "nombre": "Estero Puangue En Ruta 78", "tipo": "pluviometrica", "var": "pr", "archivo": "5746001_pr.json", "lat": -33.6614, "lon": -71.3372, "altitud_m": 93.0, "cuenca": "Rio Maipo", "periodo": "1989-2018", "n_anios": 30, "nacional": true}, {"bna": "5703009", "nombre": "Laguna Negra", "tipo": "pluviometrica", "var": "pr", "archivo": "5703009_pr.json", "lat": -33.6658, "lon": -70.1078, "altitud_m": 2780.0, "cuenca": "Rio Maipo", "periodo": "2015-2016", "n_anios": 2, "nacional": true}, {"bna": "5737007", "nombre": "Talagante", "tipo": "pluviometrica", "var": "pr", "archivo": "5737007_pr.json", "lat": -33.6669, "lon": -70.9333, "altitud_m": 325.0, "cuenca": "Rio Maipo", "periodo": "1971-1972", "n_anios": 2, "nacional": true}, {"bna": "5711003", "nombre": "Pirque", "tipo": "pluviometrica", "var": "pr", "archivo": "5711003_pr.json", "lat": -33.6736, "lon": -70.5869, "altitud_m": 659.0, "cuenca": "Rio Maipo", "periodo": "1967-2017", "n_anios": 51, "nacional": true}, {"bna": "5703008", "nombre": "El Yeso Embalse", "tipo": "pluviometrica", "var": "pr", "archivo": "5703008_pr.json", "lat": -33.6767, "lon": -70.0886, "altitud_m": 2475.0, "cuenca": "Rio Maipo", "periodo": "1962-2017", "n_anios": 56, "nacional": true}, {"bna": "5740005", "nombre": "Melipilla", "tipo": "pluviometrica", "var": "pr", "archivo": "5740005_pr.json", "lat": -33.6803, "lon": -71.1997, "altitud_m": 168.0, "cuenca": "Rio Maipo", "periodo": "1971-2017", "n_anios": 47, "nacional": true}, {"bna": "5717008", "nombre": "El Vergel", "tipo": "pluviometrica", "var": "pr", "archivo": "5717008_pr.json", "lat": -33.6958, "lon": -70.9236, "altitud_m": 340.0, "cuenca": "Rio Maipo", "periodo": "1988-2017", "n_anios": 30, "nacional": true}, {"bna": "5704005", "nombre": "San Alfonso", "tipo": "pluviometrica", "var": "pr", "archivo": "5704005_pr.json", "lat": -33.7067, "lon": -70.3342, "altitud_m": 1040.0, "cuenca": "Rio Maipo", "periodo": "1962-1973", "n_anios": 12, "nacional": true}, {"bna": "5748001", "nombre": "Rio Maipo En Cabimbao", "tipo": "pluviometrica", "var": "pr", "archivo": "5748001_pr.json", "lat": -33.7219, "lon": -71.555, "altitud_m": 35.0, "cuenca": "Rio Maipo", "periodo": "2009-2018", "n_anios": 10, "nacional": true}, {"bna": "5704002", "nombre": "Rio Maipo En San Alfonso", "tipo": "pluviometrica", "var": "pr", "archivo": "5704002_pr.json", "lat": -33.7347, "lon": -70.3008, "altitud_m": 1092.0, "cuenca": "Rio Maipo", "periodo": "2010-2017", "n_anios": 8, "nacional": true}, {"bna": "5740004", "nombre": "Carmen De Las Rosas", "tipo": "pluviometrica", "var": "pr", "archivo": "5740004_pr.json", "lat": -33.7597, "lon": -71.1514, "altitud_m": 165.0, "cuenca": "Rio Maipo", "periodo": "1930-2017", "n_anios": 88, "nacional": true}, {"bna": "5704004", "nombre": "San Gabriel", "tipo": "pluviometrica", "var": "pr", "archivo": "5704004_pr.json", "lat": -33.7825, "lon": -70.2394, "altitud_m": 1266.0, "cuenca": "Rio Maipo", "periodo": "1977-2017", "n_anios": 41, "nacional": true}, {"bna": "5716004", "nombre": "Angostura En Valdivia De Paine", "tipo": "pluviometrica", "var": "pr", "archivo": "5716004_pr.json", "lat": -33.8044, "lon": -70.8783, "altitud_m": 350.0, "cuenca": "Rio Maipo", "periodo": "1988-2015", "n_anios": 28, "nacional": true}, {"bna": "5702011", "nombre": "Glaciar San Franciscoen Aguas Panimavida", "tipo": "pluviometrica", "var": "pr", "archivo": "5702011_pr.json", "lat": -33.8053, "lon": -70.07, "altitud_m": 2220.0, "cuenca": "Rio Maipo", "periodo": "2013-2018", "n_anios": 6, "nacional": true}, {"bna": "5702001", "nombre": "Rio Volcan En Queltehues", "tipo": "pluviometrica", "var": "pr", "archivo": "5702001_pr.json", "lat": -33.8056, "lon": -70.2089, "altitud_m": 1365.0, "cuenca": "Rio Maipo", "periodo": "2014-2018", "n_anios": 5, "nacional": true}, {"bna": "5716001", "nombre": "Rio Angostura En Valdivia De Paine", "tipo": "pluviometrica", "var": "pr", "archivo": "5716001_pr.json", "lat": -33.8111, "lon": -70.8836, "altitud_m": 342.0, "cuenca": "Rio Maipo", "periodo": "2015-2017", "n_anios": 3, "nacional": true}, {"bna": "5701008", "nombre": "Queltehues", "tipo": "pluviometrica", "var": "pr", "archivo": "5701008_pr.json", "lat": -33.8164, "lon": -70.2172, "altitud_m": 1450.0, "cuenca": "Rio Maipo", "periodo": "1970-1979", "n_anios": 10, "nacional": true}, {"bna": "5716011", "nombre": "Laguna Aculeo Los Castaos", "tipo": "pluviometrica", "var": "pr", "archivo": "5716011_pr.json", "lat": -33.8592, "lon": -70.9069, "altitud_m": 354.0, "cuenca": "Rio Maipo", "periodo": "2014-2014", "n_anios": 1, "nacional": true}, {"bna": "5800002", "nombre": "Fundo Las Dos Puertas", "tipo": "pluviometrica", "var": "pr", "archivo": "5800002_pr.json", "lat": -33.8622, "lon": -71.6631, "altitud_m": 24.0, "cuenca": "Costeras Entre  Maipo Y Rapel", "periodo": "1990-2017", "n_anios": 28, "nacional": true}, {"bna": "5716005", "nombre": "Laguna Aculeo", "tipo": "pluviometrica", "var": "pr", "archivo": "5716005_pr.json", "lat": -33.8858, "lon": -70.8775, "altitud_m": 360.0, "cuenca": "Rio Maipo", "periodo": "1988-2017", "n_anios": 30, "nacional": true}, {"bna": "5747001", "nombre": "Los Guindos", "tipo": "pluviometrica", "var": "pr", "archivo": "5747001_pr.json", "lat": -33.8908, "lon": -71.2408, "altitud_m": 125.0, "cuenca": "Rio Maipo", "periodo": "1989-2017", "n_anios": 29, "nacional": true}, {"bna": "5701005", "nombre": "Las Melosas", "tipo": "pluviometrica", "var": "pr", "archivo": "5701005_pr.json", "lat": -33.8994, "lon": -70.1981, "altitud_m": 1527.0, "cuenca": "Rio Maipo", "periodo": "1962-2004", "n_anios": 43, "nacional": true},